[{"ref":"52cdef7c4bab8bd675297d8d","name":"Digg","category":"news","description":"user driven social content website","latitude":37.764726,"longitude":-122.394523,"founded_year":2004.0,"total_money_raised":"$45M","raised_amount":45000000.0,"currency":"USD","address":"135 Mississippi St","zip_code":"94107","city":"San Francisco","GeoIndex":{"type":"Point","coordinates":[-122.394523,37.764726]}},{"ref":"52cdef7c4bab8bd675297d91","name":"Geni","category":"web","description":"Geneology social network site","latitude":34.090368,"longitude":-118.393064,"founded_year":2006.0,"total_money_raised":"$16.5M","raised_amount":16500000.0,"currency":"USD","address":"9229 W. Sunset Blvd.","zip_code":"90069","city":"West Hollywood","GeoIndex":{"type":"Point","coordinates":[-118.393064,34.090368]}},{"ref":"52cdef7c4bab8bd675297d95","name":"StumbleUpon","category":"web","description":"Content discovery service","latitude":37.775196,"longitude":-122.419204,"founded_year":2002.0,"total_money_raised":"$18.5M","raised_amount":18500000.0,"currency":"USD","address":"","zip_code":"","city":"San Francisco","GeoIndex":{"type":"Point","coordinates":[-122.419204,37.775196]}},{"ref":"52cdef7c4bab8bd675297d96","name":"Gizmoz","category":"web","description":"Photo animation","latitude":37.48413,"longitude":-122.169472,"founded_year":2003.0,"total_money_raised":"$18.1M","raised_amount":18100000.0,"currency":"USD","address":null,"zip_code":null,"city":"Menlo Park","GeoIndex":{"type":"Point","coordinates":[-122.169472,37.48413]}},{"ref":"52cdef7c4bab8bd675297d98","name":"Slacker","category":"music","description":"Music Personalization Suite","latitude":33.022176,"longitude":-117.081406,"founded_year":2006.0,"total_money_raised":"$73.1M","raised_amount":73100000.0,"currency":"USD","address":"16935 W. Bernardo Dr. Suite 101","zip_code":"92127","city":"San Diego","GeoIndex":{"type":"Point","coordinates":[-117.081406,33.022176]}},{"ref":"52cdef7c4bab8bd675297d99","name":"Lala","category":"games_video","description":"hub for online music discovery","latitude":37.451151,"longitude":-122.154369,"founded_year":null,"total_money_raised":"$44.2M","raised_amount":44150000.0,"currency":"USD","address":"209 Hamilton Ave","zip_code":"94301","city":"Palo Alto","GeoIndex":{"type":"Point","coordinates":[-122.154369,37.451151]}},{"ref":"52cdef7c4bab8bd675297d97","name":"Scribd","category":"news","description":"Read Unlimited Books","latitude":37.789634,"longitude":-122.404052,"founded_year":2007.0,"total_money_raised":"$25.8M","raised_amount":25762000.0,"currency":"USD","address":"539 Bryant Street","zip_code":"94107","city":"San Francisco","GeoIndex":{"type":"Point","coordinates":[-122.404052,37.789634]}},{"ref":"52cdef7c4bab8bd675297d9c","name":"MeetMoi","category":"social","description":"Mobile Dating","latitude":40.757929,"longitude":-73.985506,"founded_year":2007.0,"total_money_raised":"$5.58M","raised_amount":5575000.0,"currency":"USD","address":"","zip_code":"","city":"New York City","GeoIndex":{"type":"Point","coordinates":[-73.985506,40.757929]}},{"ref":"52cdef7c4bab8bd675297d94","name":"Twitter","category":"social","description":"Real time communication platform","latitude":37.7768052,"longitude":-122.4169244,"founded_year":2006.0,"total_money_raised":"$1.16B","raised_amount":1160166511.0,"currency":"USD","address":"1355 Market St.","zip_code":"94103","city":"San Francisco","GeoIndex":{"type":"Point","coordinates":[-122.4169244,37.7768052]}},{"ref":"52cdef7c4bab8bd675297d8e","name":"Facebook","category":"social","description":"Social network","latitude":37.41605,"longitude":-122.151801,"founded_year":2004.0,"total_money_raised":"$2.43B","raised_amount":2425700000.0,"currency":"USD","address":"1601 Willow Road","zip_code":"94025","city":"Menlo Park","GeoIndex":{"type":"Point","coordinates":[-122.151801,37.41605]}},{"ref":"52cdef7c4bab8bd675297d8e","name":"Facebook","category":"social","description":"Social network","latitude":53.344104,"longitude":-6.267494,"founded_year":2004.0,"total_money_raised":"$2.43B","raised_amount":2425700000.0,"currency":"USD","address":"","zip_code":"","city":"Dublin","GeoIndex":{"type":"Point","coordinates":[-6.267494,53.344104]}},{"ref":"52cdef7c4bab8bd675297d8e","name":"Facebook","category":"social","description":"Social network","latitude":40.7557162,"longitude":-73.9792469,"founded_year":2004.0,"total_money_raised":"$2.43B","raised_amount":2425700000.0,"currency":"USD","address":"340 Madison Ave","zip_code":"10017","city":"New York","GeoIndex":{"type":"Point","coordinates":[-73.9792469,40.7557162]}},{"ref":"52cdef7c4bab8bd675297d9d","name":"Joost","category":"games_video","description":null,"latitude":40.7464969,"longitude":-74.0094471,"founded_year":2006.0,"total_money_raised":"$45M","raised_amount":45000000.0,"currency":"USD","address":"100 5th Ave Fl 6","zip_code":"10011-6903","city":"New York","GeoIndex":{"type":"Point","coordinates":[-74.0094471,40.7464969]}},{"ref":"52cdef7c4bab8bd675297da1","name":"Plaxo","category":"web","description":"Contact Management","latitude":37.387845,"longitude":-122.055197,"founded_year":2002.0,"total_money_raised":"$28.3M","raised_amount":28300000.0,"currency":"USD","address":"1050 Enterprise Way, 5th floor","zip_code":"94089","city":"Sunnyvale","GeoIndex":{"type":"Point","coordinates":[-122.055197,37.387845]}},{"ref":"52cdef7c4bab8bd675297da4","name":"Powerset","category":"search","description":"","latitude":37.778613,"longitude":-122.395289,"founded_year":2006.0,"total_money_raised":"$22.5M","raised_amount":22500000.0,"currency":"USD","address":"475 Brannan St","zip_code":"94107","city":"San Francisco","GeoIndex":{"type":"Point","coordinates":[-122.395289,37.778613]}},{"ref":"52cdef7c4bab8bd675297da5","name":"Technorati","category":"advertising","description":"Advertising platform\/Publisher network","latitude":37.779558,"longitude":-122.393041,"founded_year":2002.0,"total_money_raised":"$32.1M","raised_amount":32100000.0,"currency":"USD","address":"360 Post St. Ste. 1100","zip_code":"94108","city":"San Francisco","GeoIndex":{"type":"Point","coordinates":[-122.393041,37.779558]}},{"ref":"52cdef7c4bab8bd675297d9b","name":"eBay","category":"web","description":"Online Marketplace","latitude":37.295005,"longitude":-121.930035,"founded_year":1995.0,"total_money_raised":"$6.7M","raised_amount":6700000.0,"currency":"USD","address":"2145 Hamilton Avenue","zip_code":"95125","city":"San Jose","GeoIndex":{"type":"Point","coordinates":[-121.930035,37.295005]}},{"ref":"52cdef7c4bab8bd675297da7","name":"AddThis","category":"advertising","description":"Content Engagement","latitude":38.926172,"longitude":-77.245195,"founded_year":2004.0,"total_money_raised":"$73M","raised_amount":73000000.0,"currency":"USD","address":"1595 Spring Hill Road","zip_code":"22182","city":"Vienna","GeoIndex":{"type":"Point","coordinates":[-77.245195,38.926172]}},{"ref":"52cdef7c4bab8bd675297da7","name":"AddThis","category":"advertising","description":"Content Engagement","latitude":40.724432,"longitude":-73.997328,"founded_year":2004.0,"total_money_raised":"$73M","raised_amount":73000000.0,"currency":"USD","address":"568 Broadway","zip_code":"10012","city":"New York","GeoIndex":{"type":"Point","coordinates":[-73.997328,40.724432]}},{"ref":"52cdef7c4bab8bd675297da7","name":"AddThis","category":"advertising","description":"Content Engagement","latitude":34.0263021,"longitude":-118.380954,"founded_year":2004.0,"total_money_raised":"$73M","raised_amount":73000000.0,"currency":"USD","address":"10555-A Jefferson Blvd.","zip_code":"90232","city":"Culver City","GeoIndex":{"type":"Point","coordinates":[-118.380954,34.0263021]}},{"ref":"52cdef7c4bab8bd675297da7","name":"AddThis","category":"advertising","description":"Content Engagement","latitude":41.8830584,"longitude":-87.6351468,"founded_year":2004.0,"total_money_raised":"$73M","raised_amount":73000000.0,"currency":"USD","address":"225 West Washington","zip_code":"60606","city":"Chicago","GeoIndex":{"type":"Point","coordinates":[-87.6351468,41.8830584]}},{"ref":"52cdef7c4bab8bd675297da7","name":"AddThis","category":"advertising","description":"Content Engagement","latitude":37.7939112,"longitude":-122.4033221,"founded_year":2004.0,"total_money_raised":"$73M","raised_amount":73000000.0,"currency":"USD","address":"505 Montgomery Street","zip_code":"94111","city":"San Francisco","GeoIndex":{"type":"Point","coordinates":[-122.4033221,37.7939112]}},{"ref":"52cdef7c4bab8bd675297da7","name":"AddThis","category":"advertising","description":"Content Engagement","latitude":42.557958,"longitude":-83.167884,"founded_year":2004.0,"total_money_raised":"$73M","raised_amount":73000000.0,"currency":"USD","address":"2605 Crooks Road","zip_code":"48084","city":"Troy","GeoIndex":{"type":"Point","coordinates":[-83.167884,42.557958]}},{"ref":"52cdef7c4bab8bd675297da9","name":"Mahalo","category":"web","description":"Life long learning content","latitude":34.017606,"longitude":-118.487267,"founded_year":2007.0,"total_money_raised":"$21M","raised_amount":21000000.0,"currency":"USD","address":"3525 Eastham Dr.","zip_code":"90232","city":"Culver City","GeoIndex":{"type":"Point","coordinates":[-118.487267,34.017606]}},{"ref":"52cdef7c4bab8bd675297da8","name":"OpenX","category":"advertising","description":"OpenX","latitude":34.1494713,"longitude":-118.1327468,"founded_year":2008.0,"total_money_raised":"$75.5M","raised_amount":75511200.0,"currency":"USD","address":"888 East Walnut Street","zip_code":"91101","city":"Pasadena","GeoIndex":{"type":"Point","coordinates":[-118.1327468,34.1494713]}},{"ref":"52cdef7c4bab8bd675297da8","name":"OpenX","category":"advertising","description":"OpenX","latitude":40.9973438,"longitude":-73.8803598,"founded_year":2008.0,"total_money_raised":"$75.5M","raised_amount":75511200.0,"currency":"USD","address":"584 Broadway","zip_code":"10012","city":"New York","GeoIndex":{"type":"Point","coordinates":[-73.8803598,40.9973438]}},{"ref":"52cdef7c4bab8bd675297da8","name":"OpenX","category":"advertising","description":"OpenX","latitude":40.3179813,"longitude":-74.0080215,"founded_year":2008.0,"total_money_raised":"$75.5M","raised_amount":75511200.0,"currency":"USD","address":"1 Maple Place","zip_code":"W1T 4BB","city":"London","GeoIndex":{"type":"Point","coordinates":[-74.0080215,40.3179813]}},{"ref":"52cdef7c4bab8bd675297da8","name":"OpenX","category":"advertising","description":"OpenX","latitude":35.6488097,"longitude":139.7370343,"founded_year":2008.0,"total_money_raised":"$75.5M","raised_amount":75511200.0,"currency":"USD","address":"4-12-25 Minami-Azabu","zip_code":"1060047","city":"Tokyo","GeoIndex":{"type":"Point","coordinates":[139.7370343,35.6488097]}},{"ref":"52cdef7c4bab8bd675297da8","name":"OpenX","category":"advertising","description":"OpenX","latitude":48.1391385,"longitude":11.5841474,"founded_year":2008.0,"total_money_raised":"$75.5M","raised_amount":75511200.0,"currency":"USD","address":"Maximilianstrasse 35a","zip_code":"80539","city":"Munich","GeoIndex":{"type":"Point","coordinates":[11.5841474,48.1391385]}},{"ref":"52cdef7c4bab8bd675297dab","name":"Kyte","category":"games_video","description":"Online & Mobile Video Platform","latitude":37.788482,"longitude":-122.409173,"founded_year":2006.0,"total_money_raised":"$23.4M","raised_amount":23350000.0,"currency":"USD","address":"442 Post Street","zip_code":"94102","city":"San Francisco","GeoIndex":{"type":"Point","coordinates":[-122.409173,37.788482]}},{"ref":"52cdef7c4bab8bd675297dac","name":"Veoh","category":"games_video","description":"Internet TV service","latitude":32.902266,"longitude":-117.20834,"founded_year":2004.0,"total_money_raised":"$69.8M","raised_amount":69750000.0,"currency":"USD","address":"10180 Telesis Court Suite","zip_code":"92121","city":"San Diego","GeoIndex":{"type":"Point","coordinates":[-117.20834,32.902266]}},{"ref":"52cdef7c4bab8bd675297db0","name":"Info","category":"web","description":null,"latitude":41.885619,"longitude":-87.622309,"founded_year":null,"total_money_raised":"$8.4M","raised_amount":8400000.0,"currency":"USD","address":"180 North Stetson Avenue","zip_code":"60601","city":"Chicago","GeoIndex":{"type":"Point","coordinates":[-87.622309,41.885619]}},{"ref":"52cdef7c4bab8bd675297db1","name":"JotSpot","category":"web","description":null,"latitude":37.437328,"longitude":-122.159928,"founded_year":null,"total_money_raised":"$5.2M","raised_amount":5200000.0,"currency":"USD","address":"","zip_code":"","city":"Palo Alto","GeoIndex":{"type":"Point","coordinates":[-122.159928,37.437328]}},{"ref":"52cdef7c4bab8bd675297daf","name":"Jingle Networks","category":"mobile","description":"Voice and Mobile Search","latitude":37.480999,"longitude":-122.173887,"founded_year":2005.0,"total_money_raised":"$88.7M","raised_amount":88651133.0,"currency":"USD","address":"475 Park Ave South","zip_code":"10016","city":"New York","GeoIndex":{"type":"Point","coordinates":[-122.173887,37.480999]}},{"ref":"52cdef7c4bab8bd675297db2","name":"Meetup","category":"web","description":"Local community","latitude":40.72604,"longitude":-73.995722,"founded_year":2002.0,"total_money_raised":"$18.3M","raised_amount":18300000.0,"currency":"USD","address":"632 Broadway","zip_code":"10012","city":"New York","GeoIndex":{"type":"Point","coordinates":[-73.995722,40.72604]}},{"ref":"52cdef7c4bab8bd675297db5","name":"LifeLock","category":"security","description":"Identity theft protection","latitude":33.429859,"longitude":-111.938739,"founded_year":2005.0,"total_money_raised":"$178M","raised_amount":177850000.0,"currency":"USD","address":"60 E. Rio Salado Pkwy, Suite 400","zip_code":"85281","city":"Tempe","GeoIndex":{"type":"Point","coordinates":[-111.938739,33.429859]}},{"ref":"52cdef7c4bab8bd675297db9","name":"Prosper","category":"finance","description":"p2p lending marketplace","latitude":37.78976,"longitude":-122.402524,"founded_year":2006.0,"total_money_raised":"$120M","raised_amount":119900000.0,"currency":"USD","address":"101 2nd Street","zip_code":"94105","city":"San Francisco","GeoIndex":{"type":"Point","coordinates":[-122.402524,37.78976]}},{"ref":"52cdef7c4bab8bd675297dbb","name":"Jajah","category":"mobile","description":"IP Communications Platform","latitude":37.4233896,"longitude":-122.0899512,"founded_year":2005.0,"total_money_raised":"$33M","raised_amount":33000000.0,"currency":"USD","address":"2513 Charleston Road","zip_code":"94043","city":"Mountain View","GeoIndex":{"type":"Point","coordinates":[-122.0899512,37.4233896]}},{"ref":"52cdef7c4bab8bd675297dbc","name":"Skype","category":"software","description":"VoIP Software ","latitude":51.518132,"longitude":-0.131916,"founded_year":2003.0,"total_money_raised":"$76.8M","raised_amount":76805032.0,"currency":"USD","address":"23-29 Rives de Clausen","zip_code":"L-2165","city":"Luxembourg City","GeoIndex":{"type":"Point","coordinates":[-0.131916,51.518132]}},{"ref":"52cdef7c4bab8bd675297dbc","name":"Skype","category":"software","description":"VoIP Software ","latitude":37.4074478,"longitude":-122.1473726,"founded_year":2003.0,"total_money_raised":"$76.8M","raised_amount":76805032.0,"currency":"USD","address":"3210 Porter Drive","zip_code":"94304","city":"Palo Alto","GeoIndex":{"type":"Point","coordinates":[-122.1473726,37.4074478]}},{"ref":"52cdef7c4bab8bd675297dbc","name":"Skype","category":"software","description":"VoIP Software ","latitude":40.776706,"longitude":-73.4674836,"founded_year":2003.0,"total_money_raised":"$76.8M","raised_amount":76805032.0,"currency":"USD","address":"2 Stephen Street","zip_code":"W1T 1AN","city":"London","GeoIndex":{"type":"Point","coordinates":[-73.4674836,40.776706]}},{"ref":"52cdef7c4bab8bd675297dbd","name":"YouTube","category":"games_video","description":"Online video sharing","latitude":37.627971,"longitude":-122.426804,"founded_year":2005.0,"total_money_raised":"$11.5M","raised_amount":11500000.0,"currency":"USD","address":"901 Cherry Ave","zip_code":"94066","city":"San Bruno","GeoIndex":{"type":"Point","coordinates":[-122.426804,37.627971]}},{"ref":"52cdef7c4bab8bd675297da2","name":"Cisco","category":"network_hosting","description":"","latitude":37.408802,"longitude":-121.95377,"founded_year":1984.0,"total_money_raised":"$2.5M","raised_amount":2500000.0,"currency":"USD","address":"170 West Tasman Dr.","zip_code":"95134","city":"San Jose","GeoIndex":{"type":"Point","coordinates":[-121.95377,37.408802]}},{"ref":"52cdef7c4bab8bd675297dbf","name":"blogTV","category":"games_video","description":"","latitude":31.046051,"longitude":34.851612,"founded_year":2006.0,"total_money_raised":"$3M","raised_amount":3000000.0,"currency":"USD","address":"30 Ben Gurion St.","zip_code":"52573","city":"Ramat Gan","GeoIndex":{"type":"Point","coordinates":[34.851612,31.046051]}},{"ref":"52cdef7c4bab8bd675297da3","name":"Yahoo!","category":"web","description":"News and On-line directory","latitude":37.418531,"longitude":-122.025485,"founded_year":1994.0,"total_money_raised":"$6.8M","raised_amount":6800000.0,"currency":"USD","address":"701 First Avenue","zip_code":"94089","city":"Sunnyvale","GeoIndex":{"type":"Point","coordinates":[-122.025485,37.418531]}},{"ref":"52cdef7c4bab8bd675297dc2","name":"AdaptiveBlue","category":"games_video","description":"","latitude":40.801358,"longitude":-74.3372,"founded_year":2007.0,"total_money_raised":"$24M","raised_amount":24020000.0,"currency":"USD","address":"131 Varick St","zip_code":"10013","city":"NYC","GeoIndex":{"type":"Point","coordinates":[-74.3372,40.801358]}},{"ref":"52cdef7c4bab8bd675297dc0","name":"Livestream","category":"games_video","description":"Live streaming platform and website","latitude":40.726155,"longitude":-73.995625,"founded_year":2007.0,"total_money_raised":"$14.7M","raised_amount":14699973.0,"currency":"USD","address":"111 8th Avenue, #1509","zip_code":"10011","city":"New York","GeoIndex":{"type":"Point","coordinates":[-73.995625,40.726155]}},{"ref":"52cdef7c4bab8bd675297dc3","name":"Pando Networks","category":"games_video","description":"Accelerating large media delivery","latitude":40.722655,"longitude":-73.99873,"founded_year":2004.0,"total_money_raised":"$11M","raised_amount":11000000.0,"currency":"USD","address":"520 Broadway","zip_code":"10012","city":"New York","GeoIndex":{"type":"Point","coordinates":[-73.99873,40.722655]}},{"ref":"52cdef7c4bab8bd675297dc1","name":"Ustream","category":"games_video","description":"Live Social Video Community","latitude":37.392936,"longitude":-122.07948,"founded_year":2007.0,"total_money_raised":"$60.1M","raised_amount":60100000.0,"currency":"USD","address":"410 Townsend","zip_code":"94107","city":"San Francisco","GeoIndex":{"type":"Point","coordinates":[-122.07948,37.392936]}},{"ref":"52cdef7c4bab8bd675297dc1","name":"Ustream","category":"games_video","description":"Live Social Video Community","latitude":34.0983976,"longitude":-118.3373445,"founded_year":2007.0,"total_money_raised":"$60.1M","raised_amount":60100000.0,"currency":"USD","address":"6725 W Sunset Blvd","zip_code":"90028","city":"Los Angeles","GeoIndex":{"type":"Point","coordinates":[-118.3373445,34.0983976]}},{"ref":"52cdef7c4bab8bd675297dc5","name":"GrandCentral","category":"mobile","description":"","latitude":37.465645,"longitude":-121.932202,"founded_year":2006.0,"total_money_raised":"$4M","raised_amount":4000000.0,"currency":"USD","address":"48389 Fremont Blvd., Suite #110","zip_code":"94538","city":"Fremont","GeoIndex":{"type":"Point","coordinates":[-121.932202,37.465645]}},{"ref":"52cdef7c4bab8bd675297dba","name":"Google","category":"search","description":"","latitude":37.421972,"longitude":-122.084143,"founded_year":1998.0,"total_money_raised":"$555M","raised_amount":555182792.0,"currency":"USD","address":"1600 Amphitheatre Parkway","zip_code":"","city":"Mountain View","GeoIndex":{"type":"Point","coordinates":[-122.084143,37.421972]}},{"ref":"52cdef7c4bab8bd675297dba","name":"Google","category":"search","description":"","latitude":42.280988,"longitude":-83.748882,"founded_year":1998.0,"total_money_raised":"$555M","raised_amount":555182792.0,"currency":"USD","address":"112 S. Main St.","zip_code":"48104","city":"Ann Arbor","GeoIndex":{"type":"Point","coordinates":[-83.748882,42.280988]}},{"ref":"52cdef7c4bab8bd675297dba","name":"Google","category":"search","description":"","latitude":33.781466,"longitude":-84.387519,"founded_year":1998.0,"total_money_raised":"$555M","raised_amount":555182792.0,"currency":"USD","address":"10 10th Street NE","zip_code":"30309","city":"Atlanta","GeoIndex":{"type":"Point","coordinates":[-84.387519,33.781466]}},{"ref":"52cdef7c4bab8bd675297dba","name":"Google","category":"search","description":"","latitude":30.351416,"longitude":-97.751382,"founded_year":1998.0,"total_money_raised":"$555M","raised_amount":555182792.0,"currency":"USD","address":"Plaza 7000","zip_code":"78731","city":"Austin","GeoIndex":{"type":"Point","coordinates":[-97.751382,30.351416]}},{"ref":"52cdef7c4bab8bd675297dba","name":"Google","category":"search","description":"","latitude":40.021416,"longitude":-105.260931,"founded_year":1998.0,"total_money_raised":"$555M","raised_amount":555182792.0,"currency":"USD","address":"2590 Pearl Street","zip_code":"80302","city":"Boulder","GeoIndex":{"type":"Point","coordinates":[-105.260931,40.021416]}},{"ref":"52cdef7c4bab8bd675297dba","name":"Google","category":"search","description":"","latitude":42.36305,"longitude":-71.087478,"founded_year":1998.0,"total_money_raised":"$555M","raised_amount":555182792.0,"currency":"USD","address":"5 Cambridge Center","zip_code":"02142","city":"Cambridge","GeoIndex":{"type":"Point","coordinates":[-71.087478,42.36305]}},{"ref":"52cdef7c4bab8bd675297dba","name":"Google","category":"search","description":"","latitude":41.889474,"longitude":-87.628912,"founded_year":1998.0,"total_money_raised":"$555M","raised_amount":555182792.0,"currency":"USD","address":"20 West Kinzie St.","zip_code":"60610","city":"Chicago","GeoIndex":{"type":"Point","coordinates":[-87.628912,41.889474]}},{"ref":"52cdef7c4bab8bd675297dba","name":"Google","category":"search","description":"","latitude":32.981465,"longitude":-97.018196,"founded_year":1998.0,"total_money_raised":"$555M","raised_amount":555182792.0,"currency":"USD","address":"701 Canyon Drive","zip_code":"75019","city":"Coppell","GeoIndex":{"type":"Point","coordinates":[-97.018196,32.981465]}},{"ref":"52cdef7c4bab8bd675297dba","name":"Google","category":"search","description":"","latitude":32.809161,"longitude":-96.807693,"founded_year":1998.0,"total_money_raised":"$555M","raised_amount":555182792.0,"currency":"USD","address":"3102 Oak Lawn","zip_code":"75219","city":"Dallas","GeoIndex":{"type":"Point","coordinates":[-96.807693,32.809161]}},{"ref":"52cdef7c4bab8bd675297dba","name":"Google","category":"search","description":"","latitude":39.62919,"longitude":-104.898419,"founded_year":1998.0,"total_money_raised":"$555M","raised_amount":555182792.0,"currency":"USD","address":"4600 S. Syracuse St.","zip_code":"80237","city":"Denver","GeoIndex":{"type":"Point","coordinates":[-104.898419,39.62919]}},{"ref":"52cdef7c4bab8bd675297dba","name":"Google","category":"search","description":"","latitude":42.547807,"longitude":-83.215498,"founded_year":1998.0,"total_money_raised":"$555M","raised_amount":555182792.0,"currency":"USD","address":"114 Willits Street","zip_code":"48009","city":"Birmingham","GeoIndex":{"type":"Point","coordinates":[-83.215498,42.547807]}},{"ref":"52cdef7c4bab8bd675297dba","name":"Google","category":"search","description":"","latitude":33.658331,"longitude":-117.861817,"founded_year":1998.0,"total_money_raised":"$555M","raised_amount":555182792.0,"currency":"USD","address":"19540 Jamboree Road","zip_code":"92612","city":"Irvine","GeoIndex":{"type":"Point","coordinates":[-117.861817,33.658331]}},{"ref":"52cdef7c4bab8bd675297dba","name":"Google","category":"search","description":"","latitude":47.6778866,"longitude":-122.2017507,"founded_year":1998.0,"total_money_raised":"$555M","raised_amount":555182792.0,"currency":"USD","address":"Central Way Plaza","zip_code":"98033","city":"Kirkland","GeoIndex":{"type":"Point","coordinates":[-122.2017507,47.6778866]}},{"ref":"52cdef7c4bab8bd675297dba","name":"Google","category":"search","description":"","latitude":40.74222,"longitude":-74.004489,"founded_year":1998.0,"total_money_raised":"$555M","raised_amount":555182792.0,"currency":"USD","address":"76 Ninth Avenue","zip_code":"10011","city":"New York","GeoIndex":{"type":"Point","coordinates":[-74.004489,40.74222]}},{"ref":"52cdef7c4bab8bd675297dba","name":"Google","category":"search","description":"","latitude":33.411898,"longitude":-111.926263,"founded_year":1998.0,"total_money_raised":"$555M","raised_amount":555182792.0,"currency":"USD","address":"1551 S. Rural Road","zip_code":"85281","city":"Tempe","GeoIndex":{"type":"Point","coordinates":[-111.926263,33.411898]}},{"ref":"52cdef7c4bab8bd675297dba","name":"Google","category":"search","description":"","latitude":40.444528,"longitude":-79.946269,"founded_year":1998.0,"total_money_raised":"$555M","raised_amount":555182792.0,"currency":"USD","address":"4720 Forbes Avenue","zip_code":"15213","city":"Pittsburgh","GeoIndex":{"type":"Point","coordinates":[-79.946269,40.444528]}},{"ref":"52cdef7c4bab8bd675297dba","name":"Google","category":"search","description":"","latitude":37.789803,"longitude":-122.389757,"founded_year":1998.0,"total_money_raised":"$555M","raised_amount":555182792.0,"currency":"USD","address":"345 Spear Street","zip_code":"94105","city":"San Francisco","GeoIndex":{"type":"Point","coordinates":[-122.389757,37.789803]}},{"ref":"52cdef7c4bab8bd675297dba","name":"Google","category":"search","description":"","latitude":34.019282,"longitude":-118.494288,"founded_year":1998.0,"total_money_raised":"$555M","raised_amount":555182792.0,"currency":"USD","address":"604 Arizona Avenue","zip_code":"90401","city":"Santa Monica","GeoIndex":{"type":"Point","coordinates":[-118.494288,34.019282]}},{"ref":"52cdef7c4bab8bd675297dba","name":"Google","category":"search","description":"","latitude":47.675326,"longitude":-122.351397,"founded_year":1998.0,"total_money_raised":"$555M","raised_amount":555182792.0,"currency":"USD","address":"Evanston Building","zip_code":"98103","city":"Seattle","GeoIndex":{"type":"Point","coordinates":[-122.351397,47.675326]}},{"ref":"52cdef7c4bab8bd675297dba","name":"Google","category":"search","description":"","latitude":47.649701,"longitude":-122.350592,"founded_year":1998.0,"total_money_raised":"$555M","raised_amount":555182792.0,"currency":"USD","address":"651 N. 34th St.","zip_code":"98103","city":"Seattle","GeoIndex":{"type":"Point","coordinates":[-122.350592,47.649701]}},{"ref":"52cdef7c4bab8bd675297dba","name":"Google","category":"search","description":"","latitude":38.901113,"longitude":-77.027101,"founded_year":1998.0,"total_money_raised":"$555M","raised_amount":555182792.0,"currency":"USD","address":"1101 New York Avenue, N.W.","zip_code":"20005","city":"Washington","GeoIndex":{"type":"Point","coordinates":[-77.027101,38.901113]}},{"ref":"52cdef7c4bab8bd675297dba","name":"Google","category":"search","description":"","latitude":-37.879234,"longitude":145.073608,"founded_year":1998.0,"total_money_raised":"$555M","raised_amount":555182792.0,"currency":"USD","address":"Rialto South Tower, Level 27","zip_code":"3000","city":"Melbourne","GeoIndex":{"type":"Point","coordinates":[145.073608,-37.879234]}},{"ref":"52cdef7c4bab8bd675297dba","name":"Google","category":"search","description":"","latitude":-34.822723,"longitude":138.612396,"founded_year":1998.0,"total_money_raised":"$555M","raised_amount":555182792.0,"currency":"USD","address":"Levels 11 & 18, Tower 1, Darling Park","zip_code":"2000","city":"Sydney","GeoIndex":{"type":"Point","coordinates":[138.612396,-34.822723]}},{"ref":"52cdef7c4bab8bd675297dba","name":"Google","category":"search","description":"","latitude":39.993083,"longitude":116.330284,"founded_year":1998.0,"total_money_raised":"$555M","raised_amount":555182792.0,"currency":"USD","address":"Tsinghua Science Park Bldg 6","zip_code":"100084","city":"Beijing","GeoIndex":{"type":"Point","coordinates":[116.330284,39.993083]}},{"ref":"52cdef7c4bab8bd675297dba","name":"Google","category":"search","description":"","latitude":23.149995,"longitude":113.322735,"founded_year":1998.0,"total_money_raised":"$555M","raised_amount":555182792.0,"currency":"USD","address":"Tower A, 23\/F, Center Plaza","zip_code":"510620","city":"Guangzhou","GeoIndex":{"type":"Point","coordinates":[113.322735,23.149995]}},{"ref":"52cdef7c4bab8bd675297dba","name":"Google","category":"search","description":"","latitude":1.2937585,"longitude":103.8534331,"founded_year":1998.0,"total_money_raised":"$555M","raised_amount":555182792.0,"currency":"USD","address":"16F, Raffles City","zip_code":"200001","city":"Shanghai","GeoIndex":{"type":"Point","coordinates":[103.8534331,1.2937585]}},{"ref":"52cdef7c4bab8bd675297dba","name":"Google","category":"search","description":"","latitude":22.2849042,"longitude":114.1569078,"founded_year":1998.0,"total_money_raised":"$555M","raised_amount":555182792.0,"currency":"USD","address":"One IFC - 18\/F","zip_code":"","city":"Central","GeoIndex":{"type":"Point","coordinates":[114.1569078,22.2849042]}},{"ref":"52cdef7c4bab8bd675297dba","name":"Google","category":"search","description":"","latitude":12.9701854,"longitude":77.6000025,"founded_year":1998.0,"total_money_raised":"$555M","raised_amount":555182792.0,"currency":"USD","address":"Prestige Sigma, No. 3, 1st Floor","zip_code":"560 001","city":"Bangalore","GeoIndex":{"type":"Point","coordinates":[77.6000025,12.9701854]}},{"ref":"52cdef7c4bab8bd675297dba","name":"Google","category":"search","description":"","latitude":28.86999,"longitude":77.122261,"founded_year":1998.0,"total_money_raised":"$555M","raised_amount":555182792.0,"currency":"USD","address":"No. B1\/A6, First Floor","zip_code":"110044","city":"New Delhi","GeoIndex":{"type":"Point","coordinates":[77.122261,28.86999]}},{"ref":"52cdef7c4bab8bd675297dba","name":"Google","category":"search","description":"","latitude":19.012,"longitude":72.821335,"founded_year":1998.0,"total_money_raised":"$555M","raised_amount":555182792.0,"currency":"USD","address":"264-265 Vasvani Chambers","zip_code":"400 025","city":"Mumbai","GeoIndex":{"type":"Point","coordinates":[72.821335,19.012]}},{"ref":"52cdef7c4bab8bd675297dba","name":"Google","category":"search","description":"","latitude":34.6878961,"longitude":135.4914142,"founded_year":1998.0,"total_money_raised":"$555M","raised_amount":555182792.0,"currency":"USD","address":"9F, Edobori Center Building","zip_code":"550-0002","city":"Osaka","GeoIndex":{"type":"Point","coordinates":[135.4914142,34.6878961]}},{"ref":"52cdef7c4bab8bd675297dba","name":"Google","category":"search","description":"","latitude":37.4999935,"longitude":127.0365067,"founded_year":1998.0,"total_money_raised":"$555M","raised_amount":555182792.0,"currency":"USD","address":"22nd Floor, Gangnam Finance Center","zip_code":"135 984","city":"Seoul","GeoIndex":{"type":"Point","coordinates":[127.0365067,37.4999935]}},{"ref":"52cdef7c4bab8bd675297dba","name":"Google","category":"search","description":"","latitude":1.2810763,"longitude":103.8517885,"founded_year":1998.0,"total_money_raised":"$555M","raised_amount":555182792.0,"currency":"USD","address":"Level 25 North Tower","zip_code":"048583","city":"Singapore","GeoIndex":{"type":"Point","coordinates":[103.8517885,1.2810763]}},{"ref":"52cdef7c4bab8bd675297dba","name":"Google","category":"search","description":"","latitude":25.0338489,"longitude":121.5645294,"founded_year":1998.0,"total_money_raised":"$555M","raised_amount":555182792.0,"currency":"USD","address":"Level 73, Taipei 101 Tower","zip_code":"110","city":"Taipei","GeoIndex":{"type":"Point","coordinates":[121.5645294,25.0338489]}},{"ref":"52cdef7c4bab8bd675297dba","name":"Google","category":"search","description":"","latitude":56.171882,"longitude":10.187799,"founded_year":1998.0,"total_money_raised":"$555M","raised_amount":555182792.0,"currency":"USD","address":"Aabogade 15","zip_code":"","city":"","GeoIndex":{"type":"Point","coordinates":[10.187799,56.171882]}},{"ref":"52cdef7c4bab8bd675297dba","name":"Google","category":"search","description":"","latitude":55.6778907,"longitude":12.5697823,"founded_year":1998.0,"total_money_raised":"$555M","raised_amount":555182792.0,"currency":"USD","address":"Larsbjornsstraede 3","zip_code":"","city":"","GeoIndex":{"type":"Point","coordinates":[12.5697823,55.6778907]}},{"ref":"52cdef7c4bab8bd675297dba","name":"Google","category":"search","description":"","latitude":39.4427115,"longitude":-76.2894028,"founded_year":1998.0,"total_money_raised":"$555M","raised_amount":555182792.0,"currency":"USD","address":"Luna House","zip_code":"","city":"Helsinki","GeoIndex":{"type":"Point","coordinates":[-76.2894028,39.4427115]}},{"ref":"52cdef7c4bab8bd675297dba","name":"Google","category":"search","description":"","latitude":48.869606,"longitude":2.332749,"founded_year":1998.0,"total_money_raised":"$555M","raised_amount":555182792.0,"currency":"USD","address":"38 avenue de l'Op\u00c3\u00a9ra","zip_code":"75002","city":"Paris","GeoIndex":{"type":"Point","coordinates":[2.332749,48.869606]}},{"ref":"52cdef7c4bab8bd675297dba","name":"Google","category":"search","description":"","latitude":53.554052,"longitude":9.985266,"founded_year":1998.0,"total_money_raised":"$555M","raised_amount":555182792.0,"currency":"USD","address":"ABC-Strasse 19","zip_code":"20354","city":"Hamburg","GeoIndex":{"type":"Point","coordinates":[9.985266,53.554052]}},{"ref":"52cdef7c4bab8bd675297dba","name":"Google","category":"search","description":"","latitude":53.339914,"longitude":-6.234424,"founded_year":1998.0,"total_money_raised":"$555M","raised_amount":555182792.0,"currency":"USD","address":"Gordon House","zip_code":"4","city":"Dublin","GeoIndex":{"type":"Point","coordinates":[-6.234424,53.339914]}},{"ref":"52cdef7c4bab8bd675297dba","name":"Google","category":"search","description":"","latitude":45.46381,"longitude":9.195978,"founded_year":1998.0,"total_money_raised":"$555M","raised_amount":555182792.0,"currency":"USD","address":"Corso Europa 2","zip_code":"20122","city":"Milan","GeoIndex":{"type":"Point","coordinates":[9.195978,45.46381]}},{"ref":"52cdef7c4bab8bd675297dba","name":"Google","category":"search","description":"","latitude":52.337495,"longitude":4.871464,"founded_year":1998.0,"total_money_raised":"$555M","raised_amount":555182792.0,"currency":"USD","address":"Claude Debussylaan 34","zip_code":"1082","city":"Amsterdam","GeoIndex":{"type":"Point","coordinates":[4.871464,52.337495]}},{"ref":"52cdef7c4bab8bd675297dba","name":"Google","category":"search","description":"","latitude":59.915848,"longitude":10.741047,"founded_year":1998.0,"total_money_raised":"$555M","raised_amount":555182792.0,"currency":"USD","address":"C.J. Hambros plass 2C","zip_code":"N-0164","city":"Oslo","GeoIndex":{"type":"Point","coordinates":[10.741047,59.915848]}},{"ref":"52cdef7c4bab8bd675297dba","name":"Google","category":"search","description":"","latitude":63.435324,"longitude":10.412428,"founded_year":1998.0,"total_money_raised":"$555M","raised_amount":555182792.0,"currency":"USD","address":"Beddingen 10","zip_code":"7014","city":"Trondheim","GeoIndex":{"type":"Point","coordinates":[10.412428,63.435324]}},{"ref":"52cdef7c4bab8bd675297dba","name":"Google","category":"search","description":"","latitude":50.063281,"longitude":19.929806,"founded_year":1998.0,"total_money_raised":"$555M","raised_amount":555182792.0,"currency":"USD","address":"ul. Krupnicza 16","zip_code":"31-123","city":"Krak\u00c3\u00b3w","GeoIndex":{"type":"Point","coordinates":[19.929806,50.063281]}},{"ref":"52cdef7c4bab8bd675297dba","name":"Google","category":"search","description":"","latitude":51.116574,"longitude":17.041942,"founded_year":1998.0,"total_money_raised":"$555M","raised_amount":555182792.0,"currency":"USD","address":"Bema Plaza, V pietro","zip_code":"50-265","city":"Wroclaw","GeoIndex":{"type":"Point","coordinates":[17.041942,51.116574]}},{"ref":"52cdef7c4bab8bd675297dba","name":"Google","category":"search","description":"","latitude":55.7467953,"longitude":37.6262426,"founded_year":1998.0,"total_money_raised":"$555M","raised_amount":555182792.0,"currency":"USD","address":"7 Balchug st.","zip_code":"115035","city":"Moscow","GeoIndex":{"type":"Point","coordinates":[37.6262426,55.7467953]}},{"ref":"52cdef7c4bab8bd675297dba","name":"Google","category":"search","description":"","latitude":59.9354641,"longitude":30.3235616,"founded_year":1998.0,"total_money_raised":"$555M","raised_amount":555182792.0,"currency":"USD","address":"Nevsky 25","zip_code":"191186","city":"St. Petersburg","GeoIndex":{"type":"Point","coordinates":[30.3235616,59.9354641]}},{"ref":"52cdef7c4bab8bd675297dba","name":"Google","category":"search","description":"","latitude":40.450278,"longitude":-3.6925,"founded_year":1998.0,"total_money_raised":"$555M","raised_amount":555182792.0,"currency":"USD","address":"Torre Picasso","zip_code":"28020","city":"Madrid","GeoIndex":{"type":"Point","coordinates":[-3.6925,40.450278]}},{"ref":"52cdef7c4bab8bd675297dba","name":"Google","category":"search","description":"","latitude":65.617491,"longitude":22.126255,"founded_year":1998.0,"total_money_raised":"$555M","raised_amount":555182792.0,"currency":"USD","address":"Aurorum 2","zip_code":"977 75","city":"Lule\u00c3\u00a5","GeoIndex":{"type":"Point","coordinates":[22.126255,65.617491]}},{"ref":"52cdef7c4bab8bd675297dba","name":"Google","category":"search","description":"","latitude":59.332344,"longitude":18.060162,"founded_year":1998.0,"total_money_raised":"$555M","raised_amount":555182792.0,"currency":"USD","address":"M\u00c3\u00a4ster Samuelsgatan 60","zip_code":"111 21","city":"Stockholm","GeoIndex":{"type":"Point","coordinates":[18.060162,59.332344]}},{"ref":"52cdef7c4bab8bd675297dba","name":"Google","category":"search","description":"","latitude":47.36554,"longitude":8.524864,"founded_year":1998.0,"total_money_raised":"$555M","raised_amount":555182792.0,"currency":"USD","address":"Brandschenkestrasse 110","zip_code":"8002","city":"Z\u00c3\u00bcrich","GeoIndex":{"type":"Point","coordinates":[8.524864,47.36554]}},{"ref":"52cdef7c4bab8bd675297dba","name":"Google","category":"search","description":"","latitude":51.4949612,"longitude":-0.1466522,"founded_year":1998.0,"total_money_raised":"$555M","raised_amount":555182792.0,"currency":"USD","address":"Belgrave House","zip_code":"SW1W 9TQ","city":"London","GeoIndex":{"type":"Point","coordinates":[-0.1466522,51.4949612]}},{"ref":"52cdef7c4bab8bd675297dba","name":"Google","category":"search","description":"","latitude":53.473606,"longitude":-2.250166,"founded_year":1998.0,"total_money_raised":"$555M","raised_amount":555182792.0,"currency":"USD","address":"Peter House","zip_code":"M1 5AN","city":"Manchester","GeoIndex":{"type":"Point","coordinates":[-2.250166,53.473606]}},{"ref":"52cdef7c4bab8bd675297dba","name":"Google","category":"search","description":"","latitude":45.498588,"longitude":-73.567044,"founded_year":1998.0,"total_money_raised":"$555M","raised_amount":555182792.0,"currency":"USD","address":"1000 rue de la Gauchetiere Ouest","zip_code":"H3B4W5","city":"Montreal","GeoIndex":{"type":"Point","coordinates":[-73.567044,45.498588]}},{"ref":"52cdef7c4bab8bd675297dba","name":"Google","category":"search","description":"","latitude":43.6465767,"longitude":-79.3787824,"founded_year":1998.0,"total_money_raised":"$555M","raised_amount":555182792.0,"currency":"USD","address":"BCE Place, TD Canada Trust Tower","zip_code":"M5J 2S1","city":"Toronto","GeoIndex":{"type":"Point","coordinates":[-79.3787824,43.6465767]}},{"ref":"52cdef7c4bab8bd675297dba","name":"Google","category":"search","description":"","latitude":43.474704,"longitude":-80.546381,"founded_year":1998.0,"total_money_raised":"$555M","raised_amount":555182792.0,"currency":"USD","address":"340 Hagey Blvd","zip_code":"N2L 6R6","city":"Waterloo","GeoIndex":{"type":"Point","coordinates":[-80.546381,43.474704]}},{"ref":"52cdef7c4bab8bd675297dba","name":"Google","category":"search","description":"","latitude":-34.6025091,"longitude":-58.3668548,"founded_year":1998.0,"total_money_raised":"$555M","raised_amount":555182792.0,"currency":"USD","address":"Alicia M. De Justo 350, 2\u00c2\u00ba","zip_code":"C1107AAH","city":"Buenos Aires","GeoIndex":{"type":"Point","coordinates":[-58.3668548,-34.6025091]}},{"ref":"52cdef7c4bab8bd675297dba","name":"Google","category":"search","description":"","latitude":-23.590463,"longitude":-46.681494,"founded_year":1998.0,"total_money_raised":"$555M","raised_amount":555182792.0,"currency":"USD","address":"Av. Brigadeiro Faria Lima","zip_code":"04538-132","city":"Sao Paulo","GeoIndex":{"type":"Point","coordinates":[-46.681494,-23.590463]}},{"ref":"52cdef7c4bab8bd675297dba","name":"Google","category":"search","description":"","latitude":19.507519,"longitude":-99.030156,"founded_year":1998.0,"total_money_raised":"$555M","raised_amount":555182792.0,"currency":"USD","address":"Blvd. Manuel Avila Camacho #36","zip_code":"1100","city":"Mexico","GeoIndex":{"type":"Point","coordinates":[-99.030156,19.507519]}},{"ref":"52cdef7c4bab8bd675297dba","name":"Google","category":"search","description":"","latitude":35.1836176,"longitude":-106.5939012,"founded_year":1998.0,"total_money_raised":"$555M","raised_amount":555182792.0,"currency":"USD","address":"Building 30, MATAM, Advanced Technology Center","zip_code":"31905","city":"Haifa","GeoIndex":{"type":"Point","coordinates":[-106.5939012,35.1836176]}},{"ref":"52cdef7c4bab8bd675297dba","name":"Google","category":"search","description":"","latitude":32.0639337,"longitude":34.7799051,"founded_year":1998.0,"total_money_raised":"$555M","raised_amount":555182792.0,"currency":"USD","address":"Levinstein Tower","zip_code":"66183","city":"Tel-Aviv","GeoIndex":{"type":"Point","coordinates":[34.7799051,32.0639337]}},{"ref":"52cdef7c4bab8bd675297dba","name":"Google","category":"search","description":"","latitude":41.0783189,"longitude":29.0110167,"founded_year":1998.0,"total_money_raised":"$555M","raised_amount":555182792.0,"currency":"USD","address":"Kanyon Ofis Binasi Kat. 6","zip_code":"34394","city":"Istanbul","GeoIndex":{"type":"Point","coordinates":[29.0110167,41.0783189]}},{"ref":"52cdef7c4bab8bd675297dc8","name":"Topix","category":"web","description":"","latitude":37.44296,"longitude":-122.151198,"founded_year":2002.0,"total_money_raised":"$15M","raised_amount":15000000.0,"currency":"USD","address":null,"zip_code":"94301","city":"Palo Alto","GeoIndex":{"type":"Point","coordinates":[-122.151198,37.44296]}},{"ref":"52cdef7c4bab8bd675297dc9","name":"Jobster","category":"search","description":"job-focused vertical search engine","latitude":47.617682,"longitude":-122.357242,"founded_year":2004.0,"total_money_raised":"$52.5M","raised_amount":52500000.0,"currency":"USD","address":"3131 Elliott Avenue Suite 600","zip_code":"98121","city":"Seattle","GeoIndex":{"type":"Point","coordinates":[-122.357242,47.617682]}},{"ref":"52cdef7c4bab8bd675297dcf","name":"Spock","category":"search","description":"Search Engine Utilizing Social Media","latitude":37.488336,"longitude":-122.217964,"founded_year":2006.0,"total_money_raised":"$7M","raised_amount":7000000.0,"currency":"USD","address":"P.O. BOX 150","zip_code":"13457","city":"SCHUYLER LAKE","GeoIndex":{"type":"Point","coordinates":[-122.217964,37.488336]}},{"ref":"52cdef7c4bab8bd675297dd0","name":"Wize","category":"ecommerce","description":"eCommerce Product Reviews","latitude":37.559287,"longitude":-122.302262,"founded_year":2006.0,"total_money_raised":"$4.99M","raised_amount":4988000.0,"currency":"USD","address":"1110 Burlingame Ave","zip_code":"94010","city":"Burlingame","GeoIndex":{"type":"Point","coordinates":[-122.302262,37.559287]}},{"ref":"52cdef7c4bab8bd675297dcb","name":"Revision3","category":"games_video","description":"Web television network","latitude":37.757758,"longitude":-122.388243,"founded_year":2005.0,"total_money_raised":"$9M","raised_amount":9000000.0,"currency":"USD","address":"2415 3rd St","zip_code":"94107","city":"San Francisco","GeoIndex":{"type":"Point","coordinates":[-122.388243,37.757758]}},{"ref":"52cdef7c4bab8bd675297dd2","name":"CastTV","category":"games_video","description":"","latitude":37.780716,"longitude":-122.393913,"founded_year":2006.0,"total_money_raised":"$3.1M","raised_amount":3100000.0,"currency":"USD","address":"374 Brannan St.","zip_code":"94107","city":"San Francisco","GeoIndex":{"type":"Point","coordinates":[-122.393913,37.780716]}},{"ref":"52cdef7c4bab8bd675297dd3","name":"iSkoot","category":"mobile","description":"Mobile VOIP service","latitude":42.375392,"longitude":-71.118487,"founded_year":2005.0,"total_money_raised":"$32.2M","raised_amount":32200000.0,"currency":"USD","address":null,"zip_code":null,"city":"Cambridge","GeoIndex":{"type":"Point","coordinates":[-71.118487,42.375392]}},{"ref":"52cdef7c4bab8bd675297dd3","name":"iSkoot","category":"mobile","description":"Mobile VOIP service","latitude":37.780134,"longitude":-122.396744,"founded_year":2005.0,"total_money_raised":"$32.2M","raised_amount":32200000.0,"currency":"USD","address":"501 2nd Street","zip_code":"94107","city":"San Francisco","GeoIndex":{"type":"Point","coordinates":[-122.396744,37.780134]}},{"ref":"52cdef7c4bab8bd675297dd1","name":"SodaHead","category":"web","description":"Online Community and Discussion","latitude":37.269175,"longitude":-119.306607,"founded_year":2007.0,"total_money_raised":"$12.7M","raised_amount":12650000.0,"currency":"USD","address":"16161 Ventura Blvd.","zip_code":"91436","city":"Encino","GeoIndex":{"type":"Point","coordinates":[-119.306607,37.269175]}},{"ref":"52cdef7c4bab8bd675297dd8","name":"Funny Or Die","category":"games_video","description":"comedy video website","latitude":37.421621,"longitude":-122.137444,"founded_year":2007.0,"total_money_raised":"$18M","raised_amount":18000000.0,"currency":"USD","address":"167 2nd Ave","zip_code":"94401","city":"San Mateo","GeoIndex":{"type":"Point","coordinates":[-122.137444,37.421621]}},{"ref":"52cdef7c4bab8bd675297dda","name":"iContact","category":"messaging","description":"email marketing software","latitude":35.8588063,"longitude":-78.8358754,"founded_year":2003.0,"total_money_raised":"$53.4M","raised_amount":53350000.0,"currency":"USD","address":"5221 Paramount Parkway","zip_code":"27560","city":"Morrisville","GeoIndex":{"type":"Point","coordinates":[-78.8358754,35.8588063]}},{"ref":"52cdef7c4bab8bd675297ddb","name":"MeeVee","category":"games_video","description":"Personalized TV Guide","latitude":37.590339,"longitude":-122.341715,"founded_year":2000.0,"total_money_raised":"$25M","raised_amount":25000000.0,"currency":"USD","address":"500 Airport Blvd., Suite 400","zip_code":"94010","city":"Burlingame","GeoIndex":{"type":"Point","coordinates":[-122.341715,37.590339]}},{"ref":"52cdef7c4bab8bd675297ddd","name":"Mashery","category":"enterprise","description":"API and developer services","latitude":37.7870842,"longitude":-122.4038047,"founded_year":2006.0,"total_money_raised":"$34.7M","raised_amount":34700000.0,"currency":"USD","address":"717 Market Street","zip_code":"94103","city":"San Francisco","GeoIndex":{"type":"Point","coordinates":[-122.4038047,37.7870842]}},{"ref":"52cdef7c4bab8bd675297ddd","name":"Mashery","category":"enterprise","description":"API and developer services","latitude":40.7248688,"longitude":-73.9968682,"founded_year":2006.0,"total_money_raised":"$34.7M","raised_amount":34700000.0,"currency":"USD","address":"594 Broadway, Suite 407","zip_code":"10012","city":"New York","GeoIndex":{"type":"Point","coordinates":[-73.9968682,40.7248688]}},{"ref":"52cdef7c4bab8bd675297ddd","name":"Mashery","category":"enterprise","description":"API and developer services","latitude":42.350076,"longitude":-71.0472696,"founded_year":2006.0,"total_money_raised":"$34.7M","raised_amount":34700000.0,"currency":"USD","address":"374 Congress St., SUITE 304","zip_code":"02210","city":"Boston","GeoIndex":{"type":"Point","coordinates":[-71.0472696,42.350076]}},{"ref":"52cdef7c4bab8bd675297de6","name":"Wakoopa","category":"web","description":"Social network for desktop software","latitude":52.3745228,"longitude":4.8948623,"founded_year":2007.0,"total_money_raised":"$1M","raised_amount":1000000.0,"currency":"USD","address":"Damrak 70, 254","zip_code":"1012LM","city":"Amsterdam","GeoIndex":{"type":"Point","coordinates":[4.8948623,52.3745228]}},{"ref":"52cdef7c4bab8bd675297de4","name":"Yapta","category":"travel","description":"Flight Price Tracking Service","latitude":47.599925,"longitude":-122.334264,"founded_year":2007.0,"total_money_raised":"$24.3M","raised_amount":24270000.0,"currency":"USD","address":"315 1st Avenue S","zip_code":"98104","city":"Seattle","GeoIndex":{"type":"Point","coordinates":[-122.334264,47.599925]}},{"ref":"52cdef7c4bab8bd675297de4","name":"Yapta","category":"travel","description":"Flight Price Tracking Service","latitude":42.9898744,"longitude":-78.1847717,"founded_year":2007.0,"total_money_raised":"$24.3M","raised_amount":24270000.0,"currency":"USD","address":"159 Jackson Street","zip_code":"98104","city":"Seattle","GeoIndex":{"type":"Point","coordinates":[-78.1847717,42.9898744]}},{"ref":"52cdef7c4bab8bd675297de0","name":"Yelp","category":"search","description":"Local search and review site","latitude":37.786183,"longitude":-122.402195,"founded_year":2004.0,"total_money_raised":"$90M","raised_amount":89969340.0,"currency":"USD","address":"706 Mission Street","zip_code":"94103","city":"San Francisco","GeoIndex":{"type":"Point","coordinates":[-122.402195,37.786183]}},{"ref":"52cdef7c4bab8bd675297deb","name":"SideStep","category":"web","description":null,"latitude":37.374998,"longitude":-121.977853,"founded_year":1999.0,"total_money_raised":"$32M","raised_amount":32000000.0,"currency":"USD","address":"2980 Bowers Ave.","zip_code":"95051","city":"Santa Clara","GeoIndex":{"type":"Point","coordinates":[-121.977853,37.374998]}},{"ref":"52cdef7c4bab8bd675297ded","name":"Farecast","category":"search","description":"Airfare Prediction Service","latitude":47.620982,"longitude":-122.359397,"founded_year":2003.0,"total_money_raised":"$20.6M","raised_amount":20600000.0,"currency":"USD","address":"200 West Thomas Street, Suite 300","zip_code":"98119","city":"Seattle","GeoIndex":{"type":"Point","coordinates":[-122.359397,47.620982]}},{"ref":"52cdef7c4bab8bd675297def","name":"KickApps","category":"enterprise","description":"Social media applications and widgets","latitude":40.7516611,"longitude":-73.9843328,"founded_year":2004.0,"total_money_raised":"$32M","raised_amount":32000000.0,"currency":"USD","address":"26 W 17th Street","zip_code":"10011","city":"New York","GeoIndex":{"type":"Point","coordinates":[-73.9843328,40.7516611]}},{"ref":"52cdef7c4bab8bd675297def","name":"KickApps","category":"enterprise","description":"Social media applications and widgets","latitude":33.991101,"longitude":-118.468707,"founded_year":2004.0,"total_money_raised":"$32M","raised_amount":32000000.0,"currency":"USD","address":"1212 Abbott Kinney Blvd","zip_code":"90291","city":"Venice","GeoIndex":{"type":"Point","coordinates":[-118.468707,33.991101]}},{"ref":"52cdef7c4bab8bd675297def","name":"KickApps","category":"enterprise","description":"Social media applications and widgets","latitude":37.7891086,"longitude":-122.4016144,"founded_year":2004.0,"total_money_raised":"$32M","raised_amount":32000000.0,"currency":"USD","address":"607 Market St","zip_code":"94105","city":"San Francisco","GeoIndex":{"type":"Point","coordinates":[-122.4016144,37.7891086]}},{"ref":"52cdef7c4bab8bd675297def","name":"KickApps","category":"enterprise","description":"Social media applications and widgets","latitude":51.5094731,"longitude":-0.1356235,"founded_year":2004.0,"total_money_raised":"$32M","raised_amount":32000000.0,"currency":"USD","address":"212 Picadilly","zip_code":"W1J 9HF","city":"London","GeoIndex":{"type":"Point","coordinates":[-0.1356235,51.5094731]}},{"ref":"52cdef7c4bab8bd675297df2","name":"Pageflakes","category":"web","description":"AJAX Homepage Service","latitude":37.758113,"longitude":-122.414689,"founded_year":2006.0,"total_money_raised":"$4.1M","raised_amount":4100000.0,"currency":"USD","address":"795 Folsom St","zip_code":"94114","city":"San Francisco","GeoIndex":{"type":"Point","coordinates":[-122.414689,37.758113]}},{"ref":"52cdef7c4bab8bd675297df0","name":"RockYou","category":"games_video","description":"Social Gaming Company","latitude":37.484619,"longitude":-122.206893,"founded_year":2005.0,"total_money_raised":"$136M","raised_amount":136465336.0,"currency":"USD","address":"585 Broadway","zip_code":"94063","city":"Redwood City","GeoIndex":{"type":"Point","coordinates":[-122.206893,37.484619]}},{"ref":"52cdef7c4bab8bd675297df4","name":"Netvibes","category":"web","description":"Dashboard Everything","latitude":48.870806,"longitude":2.34668,"founded_year":2005.0,"total_money_raised":"$16M","raised_amount":16000000.0,"currency":"USD","address":"114, rue Cardinet","zip_code":"75017","city":"Paris","GeoIndex":{"type":"Point","coordinates":[2.34668,48.870806]}},{"ref":"52cdef7c4bab8bd675297df4","name":"Netvibes","category":"web","description":"Dashboard Everything","latitude":37.787698,"longitude":-122.4042883,"founded_year":2005.0,"total_money_raised":"$16M","raised_amount":16000000.0,"currency":"USD","address":"49 Geary","zip_code":"94108","city":"San Francisco","GeoIndex":{"type":"Point","coordinates":[-122.4042883,37.787698]}},{"ref":"52cdef7c4bab8bd675297df7","name":"Bebo","category":"web","description":"Social Network","latitude":37.782103,"longitude":-122.401116,"founded_year":2005.0,"total_money_raised":"$15M","raised_amount":15000000.0,"currency":"USD","address":"425 Bush Street","zip_code":"94108","city":"San Francisco","GeoIndex":{"type":"Point","coordinates":[-122.401116,37.782103]}},{"ref":"52cdef7c4bab8bd675297dfb","name":"WeFi","category":"mobile","description":"Wifi Network Dicovery Tool","latitude":37.09024,"longitude":-95.712891,"founded_year":2006.0,"total_money_raised":"$10M","raised_amount":10000000.0,"currency":"USD","address":"12587 Fair Lakes Circle","zip_code":"22033","city":"Fairfax","GeoIndex":{"type":"Point","coordinates":[-95.712891,37.09024]}},{"ref":"52cdef7c4bab8bd675297dfe","name":"FeedBurner","category":"web","description":"","latitude":41.889474,"longitude":-87.628912,"founded_year":2004.0,"total_money_raised":"$8M","raised_amount":8000000.0,"currency":"USD","address":"20 W Kinzie","zip_code":"60610","city":"Chicago","GeoIndex":{"type":"Point","coordinates":[-87.628912,41.889474]}},{"ref":"52cdef7c4bab8bd675297e00","name":"TVtrip","category":"web","description":"Video guide for hotels","latitude":48.856667,"longitude":2.350987,"founded_year":2007.0,"total_money_raised":"$13.8M","raised_amount":13770000.0,"currency":"USD","address":"","zip_code":"","city":"Paris","GeoIndex":{"type":"Point","coordinates":[2.350987,48.856667]}},{"ref":"52cdef7c4bab8bd675297e01","name":"Zazzle","category":"ecommerce","description":"","latitude":37.5108541,"longitude":-122.2013557,"founded_year":1999.0,"total_money_raised":"$46M","raised_amount":46000000.0,"currency":"USD","address":"1800 Seaport","zip_code":"94063","city":"Redwood City","GeoIndex":{"type":"Point","coordinates":[-122.2013557,37.5108541]}},{"ref":"52cdef7c4bab8bd675297e02","name":"Dogster","category":"web","description":"","latitude":37.762681,"longitude":-122.400909,"founded_year":2004.0,"total_money_raised":"$1M","raised_amount":1000000.0,"currency":"USD","address":"555 De Haro Street, #350","zip_code":"","city":"San Francisco","GeoIndex":{"type":"Point","coordinates":[-122.400909,37.762681]}},{"ref":"52cdef7c4bab8bd675297e03","name":"PBworks","category":"enterprise","description":"Hosted Collaboration Provider","latitude":37.5539268,"longitude":-122.2999886,"founded_year":2005.0,"total_money_raised":"$10.5M","raised_amount":10508252.0,"currency":"USD","address":"1825 S. Grant St.","zip_code":"94402","city":"San Mateo","GeoIndex":{"type":"Point","coordinates":[-122.2999886,37.5539268]}},{"ref":"52cdef7c4bab8bd675297e08","name":"Loomia","category":"web","description":"Recomendation engine","latitude":37.796396,"longitude":-122.404869,"founded_year":2004.0,"total_money_raised":"$7.5M","raised_amount":7500000.0,"currency":"USD","address":"900 Kearny St, Suite 299","zip_code":"94133","city":"San Francisco","GeoIndex":{"type":"Point","coordinates":[-122.404869,37.796396]}},{"ref":"52cdef7c4bab8bd675297e0b","name":"Newsvine","category":"web","description":"","latitude":47.618599,"longitude":-122.358484,"founded_year":2005.0,"total_money_raised":"$1.25M","raised_amount":1250000.0,"currency":"USD","address":"101 Elliott Ave. West","zip_code":"98119","city":"Seattle","GeoIndex":{"type":"Point","coordinates":[-122.358484,47.618599]}},{"ref":"52cdef7c4bab8bd675297dff","name":"TheFind","category":"ecommerce","description":"","latitude":37.391502,"longitude":-122.073463,"founded_year":2006.0,"total_money_raised":"$26M","raised_amount":26000000.0,"currency":"USD","address":"310 Villa Street","zip_code":"94041","city":"Mountain View","GeoIndex":{"type":"Point","coordinates":[-122.073463,37.391502]}},{"ref":"52cdef7c4bab8bd675297e0d","name":"FlickIM","category":"mobile","description":"chat programs","latitude":37.870744,"longitude":-122.269259,"founded_year":2006.0,"total_money_raised":"$1.6M","raised_amount":1600000.0,"currency":"USD","address":"2030 Addison St.","zip_code":"","city":"Berkeley","GeoIndex":{"type":"Point","coordinates":[-122.269259,37.870744]}},{"ref":"52cdef7c4bab8bd675297e09","name":"Meebo","category":"web","description":"Organizes the web around people.\t","latitude":37.393679,"longitude":-122.079017,"founded_year":2005.0,"total_money_raised":"$70M","raised_amount":70000000.0,"currency":"USD","address":"215 Castro Street","zip_code":"94041","city":"Mountain View","GeoIndex":{"type":"Point","coordinates":[-122.079017,37.393679]}},{"ref":"52cdef7c4bab8bd675297e09","name":"Meebo","category":"web","description":"Organizes the web around people.\t","latitude":37.7874123,"longitude":-122.4002237,"founded_year":2005.0,"total_money_raised":"$70M","raised_amount":70000000.0,"currency":"USD","address":"101 New Montgomery Street, 5th Floor","zip_code":"94105","city":"San Francisco","GeoIndex":{"type":"Point","coordinates":[-122.4002237,37.7874123]}},{"ref":"52cdef7c4bab8bd675297e09","name":"Meebo","category":"web","description":"Organizes the web around people.\t","latitude":33.7705268,"longitude":-117.8663866,"founded_year":2005.0,"total_money_raised":"$70M","raised_amount":70000000.0,"currency":"USD","address":"2525 Main Street, Suite 107","zip_code":"90405","city":"Santa Monica","GeoIndex":{"type":"Point","coordinates":[-117.8663866,33.7705268]}},{"ref":"52cdef7c4bab8bd675297e09","name":"Meebo","category":"web","description":"Organizes the web around people.\t","latitude":40.7387844,"longitude":-73.9883559,"founded_year":2005.0,"total_money_raised":"$70M","raised_amount":70000000.0,"currency":"USD","address":"45 E. 20th Street, 12th Floor","zip_code":"10003","city":"New York","GeoIndex":{"type":"Point","coordinates":[-73.9883559,40.7387844]}},{"ref":"52cdef7c4bab8bd675297e09","name":"Meebo","category":"web","description":"Organizes the web around people.\t","latitude":41.8953172,"longitude":-87.6365723,"founded_year":2005.0,"total_money_raised":"$70M","raised_amount":70000000.0,"currency":"USD","address":"311 W. Superior Street, Suite 209","zip_code":"60654","city":"Chicago","GeoIndex":{"type":"Point","coordinates":[-87.6365723,41.8953172]}},{"ref":"52cdef7c4bab8bd675297e0f","name":"Terabitz","category":"web","description":"","latitude":37.437328,"longitude":-122.159928,"founded_year":2006.0,"total_money_raised":"$10M","raised_amount":10000000.0,"currency":"USD","address":"5 Palo Alto Sq Ste 220","zip_code":"94306-2123","city":"Palo Alto","GeoIndex":{"type":"Point","coordinates":[-122.159928,37.437328]}},{"ref":"52cdef7c4bab8bd675297e0a","name":"Eventbrite","category":"web","description":"Online event management & ticketing","latitude":37.779507,"longitude":-122.39071,"founded_year":2006.0,"total_money_raised":"$140M","raised_amount":139550000.0,"currency":"USD","address":"651 Brannan","zip_code":"94107","city":"San Francisco","GeoIndex":{"type":"Point","coordinates":[-122.39071,37.779507]}},{"ref":"52cdef7c4bab8bd675297e11","name":"iLike","category":"games_video","description":"social music discovery site","latitude":47.615313,"longitude":-122.323408,"founded_year":2002.0,"total_money_raised":"$16.5M","raised_amount":16500000.0,"currency":"USD","address":"1605 Boylston Ave, Suite 202","zip_code":"98122","city":"Seattle","GeoIndex":{"type":"Point","coordinates":[-122.323408,47.615313]}},{"ref":"52cdef7c4bab8bd675297e0c","name":"LinkedIn","category":"social","description":"Professional Social Networking","latitude":37.423258,"longitude":-122.073635,"founded_year":2003.0,"total_money_raised":"$200M","raised_amount":199983710.0,"currency":"USD","address":"2029 Stierlin Ct","zip_code":"94043","city":"Mountain View","GeoIndex":{"type":"Point","coordinates":[-122.073635,37.423258]}},{"ref":"52cdef7c4bab8bd675297e10","name":"Box","category":"network_hosting","description":"Cloud Content Management","latitude":37.4027527,"longitude":-122.11685,"founded_year":2005.0,"total_money_raised":"$409M","raised_amount":408600000.0,"currency":"USD","address":"4440 El Camino Real","zip_code":"94022","city":"Los Altos","GeoIndex":{"type":"Point","coordinates":[-122.11685,37.4027527]}},{"ref":"52cdef7c4bab8bd675297e14","name":"Carbonite","category":"network_hosting","description":"","latitude":42.350571,"longitude":-71.076869,"founded_year":2006.0,"total_money_raised":"$66M","raised_amount":65998900.0,"currency":"USD","address":"","zip_code":"02116","city":"Boston","GeoIndex":{"type":"Point","coordinates":[-71.076869,42.350571]}},{"ref":"52cdef7c4bab8bd675297e15","name":"Conduit","category":"advertising","description":"Platform for branded apps","latitude":37.561877,"longitude":-122.325248,"founded_year":2005.0,"total_money_raised":"$110M","raised_amount":109800000.0,"currency":"USD","address":"950 Tower Lane","zip_code":"94404","city":"Foster City","GeoIndex":{"type":"Point","coordinates":[-122.325248,37.561877]}},{"ref":"52cdef7c4bab8bd675297e17","name":"Kaboodle","category":"ecommerce","description":"","latitude":37.382162,"longitude":-122.036301,"founded_year":2005.0,"total_money_raised":"$5M","raised_amount":5000000.0,"currency":"USD","address":"640 W. California Ave.","zip_code":"94041","city":"Sunnyvale","GeoIndex":{"type":"Point","coordinates":[-122.036301,37.382162]}},{"ref":"52cdef7c4bab8bd675297e18","name":"GigaOM","category":"news","description":"","latitude":37.775196,"longitude":-122.419204,"founded_year":2006.0,"total_money_raised":"$14.3M","raised_amount":14325000.0,"currency":"USD","address":"","zip_code":"","city":"San Francisco","GeoIndex":{"type":"Point","coordinates":[-122.419204,37.775196]}},{"ref":"52cdef7c4bab8bd675297e18","name":"GigaOM","category":"news","description":"","latitude":40.7143528,"longitude":-74.0059731,"founded_year":2006.0,"total_money_raised":"$14.3M","raised_amount":14325000.0,"currency":"USD","address":"","zip_code":"","city":"New York","GeoIndex":{"type":"Point","coordinates":[-74.0059731,40.7143528]}},{"ref":"52cdef7c4bab8bd675297e1a","name":"Wink","category":"search","description":"","latitude":37.40047,"longitude":-122.072981,"founded_year":2004.0,"total_money_raised":"$6.2M","raised_amount":6200000.0,"currency":"USD","address":"","zip_code":"94041","city":"Mountain View","GeoIndex":{"type":"Point","coordinates":[-122.072981,37.40047]}},{"ref":"52cdef7c4bab8bd675297e19","name":"Redfin","category":"real_estate","description":"Online Real Estate ","latitude":47.603122,"longitude":-122.333253,"founded_year":2004.0,"total_money_raised":"$96.8M","raised_amount":96820000.0,"currency":"USD","address":"2025 1st Ave","zip_code":"98121","city":"Seattle","GeoIndex":{"type":"Point","coordinates":[-122.333253,47.603122]}},{"ref":"52cdef7c4bab8bd675297e1d","name":"Seesmic","category":"web","description":"Social software applications","latitude":37.775196,"longitude":-122.419204,"founded_year":2007.0,"total_money_raised":"$16M","raised_amount":16000000.0,"currency":"USD","address":"1550 Bryant Street","zip_code":"94103","city":"San Francisco","GeoIndex":{"type":"Point","coordinates":[-122.419204,37.775196]}},{"ref":"52cdef7c4bab8bd675297e20","name":"Zvents","category":"web","description":"Local events and entertainment guides","latitude":37.553121,"longitude":-122.301534,"founded_year":2005.0,"total_money_raised":"$31.2M","raised_amount":31200000.0,"currency":"USD","address":"1875 South Grant Street","zip_code":null,"city":"San Mateo","GeoIndex":{"type":"Point","coordinates":[-122.301534,37.553121]}},{"ref":"52cdef7c4bab8bd675297e23","name":"Eventful","category":"web","description":"Powers the online event ecosystem ","latitude":32.872081,"longitude":-117.206292,"founded_year":2004.0,"total_money_raised":"$19.6M","raised_amount":19600000.0,"currency":"USD","address":"12626 High Bluff Drive","zip_code":"92130","city":"San Diego","GeoIndex":{"type":"Point","coordinates":[-117.206292,32.872081]}},{"ref":"52cdef7c4bab8bd675297e23","name":"Eventful","category":"web","description":"Powers the online event ecosystem ","latitude":34.0626216,"longitude":-118.3598717,"founded_year":2004.0,"total_money_raised":"$19.6M","raised_amount":19600000.0,"currency":"USD","address":"5757 Wilshire Blvd.","zip_code":"90036","city":"Los Angeles","GeoIndex":{"type":"Point","coordinates":[-118.3598717,34.0626216]}},{"ref":"52cdef7c4bab8bd675297e27","name":"Simply Hired","category":"search","description":"Job Search Engine and Recruiting Network","latitude":37.4219165,"longitude":-122.0780632,"founded_year":2004.0,"total_money_raised":"$22.3M","raised_amount":22300000.0,"currency":"USD","address":"370 San Aleso Ave","zip_code":"94085","city":"Sunnyvale","GeoIndex":{"type":"Point","coordinates":[-122.0780632,37.4219165]}},{"ref":"52cdef7c4bab8bd675297e28","name":"ooma","category":"hardware","description":"VOIP for home telephones","latitude":37.451958,"longitude":-122.116026,"founded_year":2004.0,"total_money_raised":"$81.3M","raised_amount":81312915.0,"currency":"USD","address":"1840 Embarcadero Road","zip_code":"94303","city":"Palo Alto","GeoIndex":{"type":"Point","coordinates":[-122.116026,37.451958]}},{"ref":"52cdef7c4bab8bd675297e26","name":"oDesk","category":"web","description":"Online workplace","latitude":37.479952,"longitude":-122.178557,"founded_year":2005.0,"total_money_raised":"$44M","raised_amount":44000000.0,"currency":"USD","address":"901 Marshall Street","zip_code":"94063","city":"Redwood City","GeoIndex":{"type":"Point","coordinates":[-122.178557,37.479952]}},{"ref":"52cdef7c4bab8bd675297e29","name":"Scripps Networks Interactive","category":"web","description":"","latitude":37.09024,"longitude":-95.712891,"founded_year":1994.0,"total_money_raised":"$10M","raised_amount":10000000.0,"currency":"USD","address":"Scripps Networks","zip_code":"37950","city":"Knoxville","GeoIndex":{"type":"Point","coordinates":[-95.712891,37.09024]}},{"ref":"52cdef7c4bab8bd675297e25","name":"Oodle","category":"social","description":"aggregator of classifieds ","latitude":37.563585,"longitude":-122.324621,"founded_year":2004.0,"total_money_raised":"$23.1M","raised_amount":23100000.0,"currency":"USD","address":"60 E. 3rd Ave.","zip_code":"94410","city":"San Mateo","GeoIndex":{"type":"Point","coordinates":[-122.324621,37.563585]}},{"ref":"52cdef7c4bab8bd675297e30","name":"GoingOn","category":"software","description":"Private Academic Networks","latitude":37.782263,"longitude":-122.392142,"founded_year":2008.0,"total_money_raised":"$8.5M","raised_amount":8500000.0,"currency":"USD","address":"450 Sansome Street","zip_code":"94111","city":"San Francisco","GeoIndex":{"type":"Point","coordinates":[-122.392142,37.782263]}},{"ref":"52cdef7c4bab8bd675297e31","name":"Flixster","category":"web","description":"Movie social networking","latitude":37.766909,"longitude":-122.406676,"founded_year":2006.0,"total_money_raised":"$7.18M","raised_amount":7175000.0,"currency":"USD","address":"208 Utah St","zip_code":"94103","city":"San Francisco","GeoIndex":{"type":"Point","coordinates":[-122.406676,37.766909]}},{"ref":"52cdef7c4bab8bd675297e34","name":"Piczo","category":"network_hosting","description":"","latitude":37.7936408,"longitude":-122.3986313,"founded_year":1990.0,"total_money_raised":"$11M","raised_amount":11000000.0,"currency":"USD","address":"150 California Street","zip_code":"94111","city":"San Francisco","GeoIndex":{"type":"Point","coordinates":[-122.3986313,37.7936408]}},{"ref":"52cdef7c4bab8bd675297e38","name":"PhotoBox","category":"ecommerce","description":"personalised product printing company","latitude":29.9571858,"longitude":-90.0985501,"founded_year":2000.0,"total_money_raised":"$5M","raised_amount":5000000.0,"currency":"USD","address":"Bridge House","zip_code":"W2 1LA","city":"London","GeoIndex":{"type":"Point","coordinates":[-90.0985501,29.9571858]}},{"ref":"52cdef7c4bab8bd675297e3a","name":"Spreadshirt","category":"advertising","description":"online platform for apparel merch","latitude":40.437985,"longitude":-80.004195,"founded_year":2002.0,"total_money_raised":"$12.7M","raised_amount":12740000.0,"currency":"USD","address":"211 Fort Pitt Blvd","zip_code":"15222","city":"Pittsburgh","GeoIndex":{"type":"Point","coordinates":[-80.004195,40.437985]}},{"ref":"52cdef7c4bab8bd675297e3b","name":"Socialtext","category":"enterprise","description":"Enterprise Social Software\/Collaboration","latitude":37.442949,"longitude":-122.1615,"founded_year":2002.0,"total_money_raised":"$46.8M","raised_amount":46770000.0,"currency":"USD","address":"655 High Street","zip_code":"94301","city":"Palo Alto","GeoIndex":{"type":"Point","coordinates":[-122.1615,37.442949]}},{"ref":"52cdef7c4bab8bd675297e3c","name":"Bazaarvoice","category":"software","description":"Word of mouth marketing","latitude":30.407545,"longitude":-97.717667,"founded_year":2005.0,"total_money_raised":"$131M","raised_amount":130552663.0,"currency":"USD","address":"3900 N Capital of Texas Hwy","zip_code":"78746","city":"Austin","GeoIndex":{"type":"Point","coordinates":[-97.717667,30.407545]}},{"ref":"52cdef7c4bab8bd675297e40","name":"PowerReviews","category":"social","description":"Social Commerce Solutions","latitude":37.7852115,"longitude":-122.4057116,"founded_year":null,"total_money_raised":"$40.1M","raised_amount":40120312.0,"currency":"USD","address":"22 4th Street","zip_code":"94103","city":"San Francisco","GeoIndex":{"type":"Point","coordinates":[-122.4057116,37.7852115]}},{"ref":"52cdef7c4bab8bd675297e40","name":"PowerReviews","category":"social","description":"Social Commerce Solutions","latitude":51.527099,"longitude":-0.104408,"founded_year":null,"total_money_raised":"$40.1M","raised_amount":40120312.0,"currency":"USD","address":"145-157 St John Street","zip_code":"EC1V 4PY","city":"London","GeoIndex":{"type":"Point","coordinates":[-0.104408,51.527099]}},{"ref":"52cdef7c4bab8bd675297e44","name":"hi5","category":"games_video","description":"","latitude":37.788668,"longitude":-122.400558,"founded_year":2003.0,"total_money_raised":"$52M","raised_amount":52000000.0,"currency":"USD","address":"55 Second Street","zip_code":"94105","city":"San Francisco","GeoIndex":{"type":"Point","coordinates":[-122.400558,37.788668]}},{"ref":"52cdef7c4bab8bd675297e47","name":"ScanScout","category":"advertising","description":"video advertising network","latitude":42.340889,"longitude":-71.051931,"founded_year":2005.0,"total_money_raised":"$17.5M","raised_amount":17500000.0,"currency":"USD","address":"295 Devonshire Street, 4th floor","zip_code":"02110","city":"Boston","GeoIndex":{"type":"Point","coordinates":[-71.051931,42.340889]}},{"ref":"52cdef7c4bab8bd675297e47","name":"ScanScout","category":"advertising","description":"video advertising network","latitude":40.739833,"longitude":-73.993158,"founded_year":2005.0,"total_money_raised":"$17.5M","raised_amount":17500000.0,"currency":"USD","address":"450 Seventh Ave, Ste 209","zip_code":"10011","city":"New York","GeoIndex":{"type":"Point","coordinates":[-73.993158,40.739833]}},{"ref":"52cdef7c4bab8bd675297e47","name":"ScanScout","category":"advertising","description":"video advertising network","latitude":34.050887,"longitude":-118.459995,"founded_year":2005.0,"total_money_raised":"$17.5M","raised_amount":17500000.0,"currency":"USD","address":"11601 Wilshire Blvd","zip_code":"90025","city":"Los Angeles","GeoIndex":{"type":"Point","coordinates":[-118.459995,34.050887]}},{"ref":"52cdef7c4bab8bd675297e3e","name":"spigit","category":"software","description":"Purpose-built social networking platform","latitude":37.6637279,"longitude":-121.8731805,"founded_year":2006.0,"total_money_raised":"$55.6M","raised_amount":55600000.0,"currency":"USD","address":"311 Ray Street","zip_code":"94566","city":"Pleasanton","GeoIndex":{"type":"Point","coordinates":[-121.8731805,37.6637279]}},{"ref":"52cdef7c4bab8bd675297e3e","name":"spigit","category":"software","description":"Purpose-built social networking platform","latitude":38.9590083,"longitude":-77.3592746,"founded_year":2006.0,"total_money_raised":"$55.6M","raised_amount":55600000.0,"currency":"USD","address":"11951 Freedom Drive","zip_code":"20190","city":"Reston","GeoIndex":{"type":"Point","coordinates":[-77.3592746,38.9590083]}},{"ref":"52cdef7c4bab8bd675297e3e","name":"spigit","category":"software","description":"Purpose-built social networking platform","latitude":51.5170385,"longitude":-0.1394759,"founded_year":2006.0,"total_money_raised":"$55.6M","raised_amount":55600000.0,"currency":"USD","address":"10 Margaret Street","zip_code":"W1W 8RL","city":"London","GeoIndex":{"type":"Point","coordinates":[-0.1394759,51.5170385]}},{"ref":"52cdef7c4bab8bd675297e46","name":"Tagged","category":"social","description":"","latitude":37.7753,"longitude":-122.4186,"founded_year":2004.0,"total_money_raised":"$28.7M","raised_amount":28701975.0,"currency":"USD","address":"P.O. Box 193152","zip_code":"94119-3152","city":"San Francisco","GeoIndex":{"type":"Point","coordinates":[-122.4186,37.7753]}},{"ref":"52cdef7c4bab8bd675297e4a","name":"Indeed","category":"web","description":"Job Search Portal","latitude":41.038155,"longitude":-73.558082,"founded_year":2004.0,"total_money_raised":"$5M","raised_amount":5000000.0,"currency":"USD","address":"177 Broad St. 6th Floor","zip_code":"06901","city":"Stamford","GeoIndex":{"type":"Point","coordinates":[-73.558082,41.038155]}},{"ref":"52cdef7c4bab8bd675297e4a","name":"Indeed","category":"web","description":"Job Search Portal","latitude":30.3741311,"longitude":-97.7808373,"founded_year":2004.0,"total_money_raised":"$5M","raised_amount":5000000.0,"currency":"USD","address":"7501 N. Capital of Texas Hwy","zip_code":"78731","city":"Austin","GeoIndex":{"type":"Point","coordinates":[-97.7808373,30.3741311]}},{"ref":"52cdef7c4bab8bd675297e4b","name":"Jaxtr","category":"mobile","description":"VOIP phone calls to mobile phones","latitude":37.451026,"longitude":-122.18676,"founded_year":2005.0,"total_money_raised":"$21.5M","raised_amount":21500000.0,"currency":"USD","address":"855 Oak Grove Ave.","zip_code":"94025","city":"Menlo Park","GeoIndex":{"type":"Point","coordinates":[-122.18676,37.451026]}},{"ref":"52cdef7c4bab8bd675297e4d","name":"NetSuite","category":"enterprise","description":"Cloud ERP CRM PSA","latitude":37.536172,"longitude":-122.327323,"founded_year":1998.0,"total_money_raised":"$1.5M","raised_amount":1500000.0,"currency":"USD","address":"2955 Campus Drive, Suite 100","zip_code":"94403","city":"San Mateo","GeoIndex":{"type":"Point","coordinates":[-122.327323,37.536172]}},{"ref":"52cdef7c4bab8bd675297e4f","name":"introNetworks","category":"web","description":"","latitude":34.42071,"longitude":-119.641821,"founded_year":2003.0,"total_money_raised":"$2.7M","raised_amount":2700000.0,"currency":"USD","address":"1280 Coast Village Circle, Suite B","zip_code":"93108","city":"Montecito","GeoIndex":{"type":"Point","coordinates":[-119.641821,34.42071]}},{"ref":"52cdef7c4bab8bd675297e51","name":"Going","category":"web","description":"Events Networking","latitude":42.355672,"longitude":-71.060864,"founded_year":null,"total_money_raised":"$5M","raised_amount":5000000.0,"currency":"USD","address":"8 Winter St.","zip_code":"02108","city":"Boston","GeoIndex":{"type":"Point","coordinates":[-71.060864,42.355672]}},{"ref":"52cdef7c4bab8bd675297e54","name":"Respectance","category":"web","description":"#RIP","latitude":37.55909,"longitude":-122.321836,"founded_year":2006.0,"total_money_raised":"$1.75M","raised_amount":1750000.0,"currency":"USD","address":"","zip_code":"","city":"San Mateo","GeoIndex":{"type":"Point","coordinates":[-122.321836,37.55909]}},{"ref":"52cdef7c4bab8bd675297e55","name":"Curse","category":"games_video","description":"Online games media company","latitude":37.787092,"longitude":-122.399972,"founded_year":2006.0,"total_money_raised":"$12M","raised_amount":12000000.0,"currency":"USD","address":"60 Broadway","zip_code":"94111","city":"San Francisco","GeoIndex":{"type":"Point","coordinates":[-122.399972,37.787092]}},{"ref":"52cdef7c4bab8bd675297e55","name":"Curse","category":"games_video","description":"Online games media company","latitude":34.7449155,"longitude":-86.6909648,"founded_year":2006.0,"total_money_raised":"$12M","raised_amount":12000000.0,"currency":"USD","address":"150 West Park Loop NW","zip_code":"35806","city":"Huntsville","GeoIndex":{"type":"Point","coordinates":[-86.6909648,34.7449155]}},{"ref":"52cdef7c4bab8bd675297e5c","name":"Kiptronic","category":"advertising","description":"Digital video ad platform","latitude":37.792394,"longitude":-122.402349,"founded_year":2005.0,"total_money_raised":"$7.3M","raised_amount":7300000.0,"currency":"USD","address":"300 Montgomery St.","zip_code":"94104","city":"San Francisco","GeoIndex":{"type":"Point","coordinates":[-122.402349,37.792394]}},{"ref":"52cdef7c4bab8bd675297e58","name":"eBuddy","category":"messaging","description":"Web and mobile messaging","latitude":52.3640933,"longitude":4.8919457,"founded_year":2003.0,"total_money_raised":"\u20ac11.5M","raised_amount":11500000.0,"currency":"EUR","address":"Keizersgracht 585","zip_code":"1017 DR","city":"Amsterdam","GeoIndex":{"type":"Point","coordinates":[4.8919457,52.3640933]}},{"ref":"52cdef7c4bab8bd675297e58","name":"eBuddy","category":"messaging","description":"Web and mobile messaging","latitude":37.787683,"longitude":-122.410943,"founded_year":2003.0,"total_money_raised":"\u20ac11.5M","raised_amount":11500000.0,"currency":"EUR","address":"555 Post St.","zip_code":"94102","city":"San Francisco","GeoIndex":{"type":"Point","coordinates":[-122.410943,37.787683]}},{"ref":"52cdef7c4bab8bd675297e58","name":"eBuddy","category":"messaging","description":"Web and mobile messaging","latitude":51.500152,"longitude":-0.126236,"founded_year":2003.0,"total_money_raised":"\u20ac11.5M","raised_amount":11500000.0,"currency":"EUR","address":"","zip_code":"","city":"Singapore","GeoIndex":{"type":"Point","coordinates":[-0.126236,51.500152]}},{"ref":"52cdef7c4bab8bd675297e5a","name":"Grockit","category":"social","description":"Online social learning games","latitude":37.775196,"longitude":-122.419204,"founded_year":2006.0,"total_money_raised":"$44.7M","raised_amount":44700000.0,"currency":"USD","address":"500 Third Street","zip_code":"94107","city":"San Francisco","GeoIndex":{"type":"Point","coordinates":[-122.419204,37.775196]}},{"ref":"52cdef7c4bab8bd675297e61","name":"Vuze","category":"games_video","description":"","latitude":37.4858654,"longitude":-122.2262606,"founded_year":2005.0,"total_money_raised":"$34M","raised_amount":34000000.0,"currency":"USD","address":"4 W. 4th Ave","zip_code":"94402","city":"San Mateo","GeoIndex":{"type":"Point","coordinates":[-122.2262606,37.4858654]}},{"ref":"52cdef7c4bab8bd675297e63","name":"Phonezoo","category":"web","description":"","latitude":37.386376,"longitude":-121.991471,"founded_year":2006.0,"total_money_raised":"$2.06M","raised_amount":2060000.0,"currency":"USD","address":"1270 Oakmead Pkwy, Suite 214","zip_code":"94085","city":"Sunnyvale","GeoIndex":{"type":"Point","coordinates":[-121.991471,37.386376]}},{"ref":"52cdef7c4bab8bd675297e66","name":"Wishpot","category":"ecommerce","description":"Social shopping service","latitude":47.620716,"longitude":-122.347533,"founded_year":2006.0,"total_money_raised":"$1.3M","raised_amount":1300000.0,"currency":"USD","address":"911 Western Ave.","zip_code":"98104","city":"Seattle","GeoIndex":{"type":"Point","coordinates":[-122.347533,47.620716]}},{"ref":"52cdef7c4bab8bd675297e6b","name":"PodTech","category":"games_video","description":null,"latitude":37.408256,"longitude":-122.154176,"founded_year":2005.0,"total_money_raised":"$7.5M","raised_amount":7500000.0,"currency":"USD","address":"1801 Page Mill Rd - Suite 400","zip_code":"94304","city":"Palo Alto","GeoIndex":{"type":"Point","coordinates":[-122.154176,37.408256]}},{"ref":"52cdef7c4bab8bd675297e6c","name":"NowPublic","category":"web","description":"crowdsourcing news network","latitude":49.283376,"longitude":-123.103986,"founded_year":2005.0,"total_money_raised":"$12M","raised_amount":12000000.0,"currency":"USD","address":"576 Seymour Street","zip_code":"","city":"Vancouver","GeoIndex":{"type":"Point","coordinates":[-123.103986,49.283376]}},{"ref":"52cdef7c4bab8bd675297e6d","name":"PayScale","category":"software","description":"Cloud Compensation Software","latitude":47.5999337,"longitude":-122.3276962,"founded_year":1999.0,"total_money_raised":"$31.1M","raised_amount":31134999.0,"currency":"USD","address":"542 First Ave South","zip_code":"98104","city":"Seattle","GeoIndex":{"type":"Point","coordinates":[-122.3276962,47.5999337]}},{"ref":"52cdef7c4bab8bd675297e6e","name":"Crackle","category":"games_video","description":"","latitude":34.017506,"longitude":-118.401579,"founded_year":2004.0,"total_money_raised":"$1.75M","raised_amount":1750000.0,"currency":"USD","address":"10202 W. Washington Blvd","zip_code":"90232","city":"Culver City","GeoIndex":{"type":"Point","coordinates":[-118.401579,34.017506]}},{"ref":"52cdef7c4bab8bd675297e76","name":"Lotame","category":"advertising","description":"Data Management Platform","latitude":39.205649,"longitude":-76.77514,"founded_year":2006.0,"total_money_raised":"$34M","raised_amount":34000000.0,"currency":"USD","address":"8850 Stanford Blvd","zip_code":"21045","city":"Columbia","GeoIndex":{"type":"Point","coordinates":[-76.77514,39.205649]}},{"ref":"52cdef7c4bab8bd675297e76","name":"Lotame","category":"advertising","description":"Data Management Platform","latitude":40.753631,"longitude":-73.995487,"founded_year":2006.0,"total_money_raised":"$34M","raised_amount":34000000.0,"currency":"USD","address":"440 Ninth Ave","zip_code":"10001","city":"New York","GeoIndex":{"type":"Point","coordinates":[-73.995487,40.753631]}},{"ref":"52cdef7c4bab8bd675297e76","name":"Lotame","category":"advertising","description":"Data Management Platform","latitude":42.359146,"longitude":-71.056604,"founded_year":2006.0,"total_money_raised":"$34M","raised_amount":34000000.0,"currency":"USD","address":"485 Massachusetts Ave","zip_code":"02139","city":"Cambridge","GeoIndex":{"type":"Point","coordinates":[-71.056604,42.359146]}},{"ref":"52cdef7c4bab8bd675297e76","name":"Lotame","category":"advertising","description":"Data Management Platform","latitude":41.8861537,"longitude":-87.6315009,"founded_year":2006.0,"total_money_raised":"$34M","raised_amount":34000000.0,"currency":"USD","address":"203 N. LaSalle Street","zip_code":"60601","city":"Chicago","GeoIndex":{"type":"Point","coordinates":[-87.6315009,41.8861537]}},{"ref":"52cdef7c4bab8bd675297e76","name":"Lotame","category":"advertising","description":"Data Management Platform","latitude":41.8861537,"longitude":-87.6315009,"founded_year":2006.0,"total_money_raised":"$34M","raised_amount":34000000.0,"currency":"USD","address":"203 N. LaSalle Street","zip_code":"60601","city":"Chicago","GeoIndex":{"type":"Point","coordinates":[-87.6315009,41.8861537]}},{"ref":"52cdef7c4bab8bd675297e76","name":"Lotame","category":"advertising","description":"Data Management Platform","latitude":41.8861537,"longitude":-87.6315009,"founded_year":2006.0,"total_money_raised":"$34M","raised_amount":34000000.0,"currency":"USD","address":"203 N. LaSalle Street","zip_code":"60601","city":"Chicago","GeoIndex":{"type":"Point","coordinates":[-87.6315009,41.8861537]}},{"ref":"52cdef7c4bab8bd675297e78","name":"Rebtel","category":"mobile","description":"Talk More With Your Loved Ones","latitude":59.3167843,"longitude":18.1582777,"founded_year":2006.0,"total_money_raised":"$20M","raised_amount":20000000.0,"currency":"USD","address":"Fabrikorvagen 4","zip_code":"131 52","city":"Nacka Strand","GeoIndex":{"type":"Point","coordinates":[18.1582777,59.3167843]}},{"ref":"52cdef7c4bab8bd675297e79","name":"Wikia","category":"web","description":"","latitude":37.7810194,"longitude":-122.3956684,"founded_year":2006.0,"total_money_raised":"$24.8M","raised_amount":24800000.0,"currency":"USD","address":"500 3rd St Ste 405","zip_code":"94017-1889","city":"San Francisco","GeoIndex":{"type":"Point","coordinates":[-122.3956684,37.7810194]}},{"ref":"52cdef7c4bab8bd675297e7c","name":"Retrevo","category":"web","description":"Consumer Electronics Shopping Site","latitude":37.3840875,"longitude":-122.0127955,"founded_year":2006.0,"total_money_raised":"$11.9M","raised_amount":11900000.0,"currency":"USD","address":"440 N. Wolfe Rd.","zip_code":"","city":"Sunnyvale","GeoIndex":{"type":"Point","coordinates":[-122.0127955,37.3840875]}},{"ref":"52cdef7c4bab8bd675297e7b","name":"BuddyTV","category":"games_video","description":"Online TV guide and viewer community","latitude":47.61968,"longitude":-122.356756,"founded_year":2005.0,"total_money_raised":"$10.6M","raised_amount":10550000.0,"currency":"USD","address":"190 Queen Anne Ave Suite 280","zip_code":"98109","city":"Seattle","GeoIndex":{"type":"Point","coordinates":[-122.356756,47.61968]}},{"ref":"52cdef7c4bab8bd675297e82","name":"Hightail","category":"network_hosting","description":"securely share files & folders anywhere","latitude":37.288974,"longitude":-121.935688,"founded_year":2004.0,"total_money_raised":"$82.7M","raised_amount":82700000.0,"currency":"USD","address":"1919 S Bascom Ave","zip_code":"95008","city":"Campbell","GeoIndex":{"type":"Point","coordinates":[-121.935688,37.288974]}},{"ref":"52cdef7c4bab8bd675297e81","name":"Brightcove","category":"enterprise","description":"Online video platform","latitude":42.362993,"longitude":-71.086596,"founded_year":2004.0,"total_money_raised":"$103M","raised_amount":103100000.0,"currency":"USD","address":"One Cambridge Center","zip_code":"02142","city":"Cambridge","GeoIndex":{"type":"Point","coordinates":[-71.086596,42.362993]}},{"ref":"52cdef7c4bab8bd675297e81","name":"Brightcove","category":"enterprise","description":"Online video platform","latitude":35.6461371,"longitude":139.7153917,"founded_year":2004.0,"total_money_raised":"$103M","raised_amount":103100000.0,"currency":"USD","address":"Ebisu LITE Bldg. 2F","zip_code":"150-0022","city":"Tokyo","GeoIndex":{"type":"Point","coordinates":[139.7153917,35.6461371]}},{"ref":"52cdef7c4bab8bd675297e81","name":"Brightcove","category":"enterprise","description":"Online video platform","latitude":40.7524167,"longitude":-73.973565,"founded_year":2004.0,"total_money_raised":"$103M","raised_amount":103100000.0,"currency":"USD","address":"708 Third Ave","zip_code":"10017","city":"New York","GeoIndex":{"type":"Point","coordinates":[-73.973565,40.7524167]}},{"ref":"52cdef7c4bab8bd675297e81","name":"Brightcove","category":"enterprise","description":"Online video platform","latitude":47.6248542,"longitude":-122.3597422,"founded_year":2004.0,"total_money_raised":"$103M","raised_amount":103100000.0,"currency":"USD","address":"200 West Mercer Street","zip_code":"98119","city":"Seattle","GeoIndex":{"type":"Point","coordinates":[-122.3597422,47.6248542]}},{"ref":"52cdef7c4bab8bd675297e81","name":"Brightcove","category":"enterprise","description":"Online video platform","latitude":51.5099797,"longitude":-0.125387,"founded_year":2004.0,"total_money_raised":"$103M","raised_amount":103100000.0,"currency":"USD","address":"53 Chandos Place","zip_code":"WC2N 4HS","city":"London","GeoIndex":{"type":"Point","coordinates":[-0.125387,51.5099797]}},{"ref":"52cdef7c4bab8bd675297e81","name":"Brightcove","category":"enterprise","description":"Online video platform","latitude":41.3912405,"longitude":2.1355987,"founded_year":2004.0,"total_money_raised":"$103M","raised_amount":103100000.0,"currency":"USD","address":"Avenida Diagonal 640","zip_code":"08017","city":"Barcelona","GeoIndex":{"type":"Point","coordinates":[2.1355987,41.3912405]}},{"ref":"52cdef7c4bab8bd675297e83","name":"Nimbuzz","category":"mobile","description":"Mobile messaging, VoIP and Social","latitude":51.9122575,"longitude":4.5464658,"founded_year":2006.0,"total_money_raised":"$25M","raised_amount":25000000.0,"currency":"USD","address":"301 Rivium Boulevard","zip_code":"2909 LK","city":"Capelle a\/d IJssel","GeoIndex":{"type":"Point","coordinates":[4.5464658,51.9122575]}},{"ref":"52cdef7c4bab8bd675297e83","name":"Nimbuzz","category":"mobile","description":"Mobile messaging, VoIP and Social","latitude":28.405967,"longitude":77.044523,"founded_year":2006.0,"total_money_raised":"$25M","raised_amount":25000000.0,"currency":"USD","address":"5th Floor, Vatika Business Park","zip_code":"","city":"Gurgaon","GeoIndex":{"type":"Point","coordinates":[77.044523,28.405967]}},{"ref":"52cdef7c4bab8bd675297e8b","name":"Vudu","category":"hardware","description":"digital technologies and services","latitude":53.4153229,"longitude":-2.1758739,"founded_year":2004.0,"total_money_raised":"$36M","raised_amount":36000000.0,"currency":"USD","address":"2890 Bower Avenue","zip_code":"95051","city":"Santa Clara","GeoIndex":{"type":"Point","coordinates":[-2.1758739,53.4153229]}},{"ref":"52cdef7c4bab8bd675297e86","name":"obopay","category":"mobile","description":"Mobile payment solutions","latitude":37.524729,"longitude":-122.258037,"founded_year":2005.0,"total_money_raised":"$145M","raised_amount":144760181.0,"currency":"USD","address":"275 Shoreline Drive","zip_code":"","city":"Redwood City","GeoIndex":{"type":"Point","coordinates":[-122.258037,37.524729]}},{"ref":"52cdef7c4bab8bd675297e7a","name":"Amazon","category":"ecommerce","description":"","latitude":47.5923,"longitude":-122.317295,"founded_year":1994.0,"total_money_raised":"$8M","raised_amount":8000000.0,"currency":"USD","address":"1200 12th Ave","zip_code":"98144","city":"Seattle","GeoIndex":{"type":"Point","coordinates":[-122.317295,47.5923]}},{"ref":"52cdef7c4bab8bd675297e92","name":"Rocketboom","category":"news","description":"","latitude":40.797364,"longitude":-73.97785,"founded_year":2007.0,"total_money_raised":"$1.5M","raised_amount":1500000.0,"currency":"USD","address":"PO Box 804","zip_code":"10024","city":"New York","GeoIndex":{"type":"Point","coordinates":[-73.97785,40.797364]}},{"ref":"52cdef7c4bab8bd675297e89","name":"PayPal","category":"finance","description":"Internet payment service","latitude":37.294465,"longitude":-121.927696,"founded_year":1998.0,"total_money_raised":"$197M","raised_amount":197000000.0,"currency":"USD","address":"2145 E Hamilton Ave","zip_code":"95125","city":"San Jose","GeoIndex":{"type":"Point","coordinates":[-121.927696,37.294465]}},{"ref":"52cdef7c4bab8bd675297e97","name":"Snapfish","category":"network_hosting","description":"Photo hosting and printing","latitude":37.7851925,"longitude":-122.3957125,"founded_year":1999.0,"total_money_raised":"$43.5M","raised_amount":43500000.0,"currency":"USD","address":"303 Second Street","zip_code":"94107","city":"San Francisco","GeoIndex":{"type":"Point","coordinates":[-122.3957125,37.7851925]}},{"ref":"52cdef7c4bab8bd675297e9b","name":"IMVU","category":"web","description":"Online 3D Community","latitude":37.3927975,"longitude":-122.0727749,"founded_year":2004.0,"total_money_raised":"$29M","raised_amount":29000000.0,"currency":"USD","address":"200 West Evelyn Ave.","zip_code":"94041","city":"Mountain View","GeoIndex":{"type":"Point","coordinates":[-122.0727749,37.3927975]}},{"ref":"52cdef7c4bab8bd675297ea1","name":"Scrybe","category":"enterprise","description":"","latitude":40.270666,"longitude":-74.761403,"founded_year":2007.0,"total_money_raised":"$1.31M","raised_amount":1309000.0,"currency":"USD","address":"181 Fremont Street","zip_code":"94105","city":"San Francisco","GeoIndex":{"type":"Point","coordinates":[-74.761403,40.270666]}},{"ref":"52cdef7c4bab8bd675297e96","name":"AOL","category":"web","description":"","latitude":40.7311317,"longitude":-73.9919311,"founded_year":1985.0,"total_money_raised":"$1B","raised_amount":1000000000.0,"currency":"USD","address":"770 Broadway","zip_code":"10003","city":"New York","GeoIndex":{"type":"Point","coordinates":[-73.9919311,40.7311317]}},{"ref":"52cdef7c4bab8bd675297ea2","name":"Aniboom","category":"games_video","description":"Animation production","latitude":31.046051,"longitude":34.851612,"founded_year":2006.0,"total_money_raised":"$14.5M","raised_amount":14500000.0,"currency":"USD","address":null,"zip_code":null,"city":null,"GeoIndex":{"type":"Point","coordinates":[34.851612,31.046051]}},{"ref":"52cdef7c4bab8bd675297eac","name":"Viagogo","category":"ecommerce","description":"Uppriced online event ticket marketplace","latitude":51.500152,"longitude":-0.126236,"founded_year":2005.0,"total_money_raised":"$65M","raised_amount":65000000.0,"currency":"USD","address":"77 Battery St Fl 4","zip_code":"94111-5540","city":"San Francisco","GeoIndex":{"type":"Point","coordinates":[-0.126236,51.500152]}},{"ref":"52cdef7c4bab8bd675297eb1","name":"GreatCall","category":"mobile","description":"Mobile Virtual Network Operator","latitude":32.964294,"longitude":-117.265191,"founded_year":2005.0,"total_money_raised":"$75.3M","raised_amount":75304623.0,"currency":"USD","address":"12680 High Bluff Drive","zip_code":"92130","city":"San Diego","GeoIndex":{"type":"Point","coordinates":[-117.265191,32.964294]}},{"ref":"52cdef7c4bab8bd675297eb6","name":"SelectMinds","category":"network_hosting","description":"","latitude":40.740251,"longitude":-73.990004,"founded_year":2000.0,"total_money_raised":"$5.5M","raised_amount":5500000.0,"currency":"USD","address":"149 Fifth Avenue","zip_code":"10010","city":"New York","GeoIndex":{"type":"Point","coordinates":[-73.990004,40.740251]}},{"ref":"52cdef7c4bab8bd675297eb9","name":"Metacafe","category":"games_video","description":"Online Video Entertainment","latitude":37.437328,"longitude":-122.159928,"founded_year":2003.0,"total_money_raised":"$50M","raised_amount":50000000.0,"currency":"USD","address":"128 King Street","zip_code":"94107","city":"San Francisco","GeoIndex":{"type":"Point","coordinates":[-122.159928,37.437328]}},{"ref":"52cdef7c4bab8bd675297eb0","name":"Echo","category":"enterprise","description":"Real-time Web Platform","latitude":38.0729365,"longitude":-122.1879633,"founded_year":2007.0,"total_money_raised":"$4.8M","raised_amount":4800000.0,"currency":"USD","address":"1765 Crockett Lane","zip_code":"94010","city":"San francisco","GeoIndex":{"type":"Point","coordinates":[-122.1879633,38.0729365]}},{"ref":"52cdef7c4bab8bd675297ebc","name":"Flock","category":"web","description":"free social web browser","latitude":37.491356,"longitude":-122.228843,"founded_year":2005.0,"total_money_raised":"$28.3M","raised_amount":28300000.0,"currency":"USD","address":"644 Menlo Ave.","zip_code":"94025","city":"Menlo Park","GeoIndex":{"type":"Point","coordinates":[-122.228843,37.491356]}},{"ref":"52cdef7c4bab8bd675297ebb","name":"ChaCha","category":"advertising","description":"Mobile and Online Answers Service","latitude":39.998641,"longitude":-86.130347,"founded_year":2005.0,"total_money_raised":"$89M","raised_amount":89000000.0,"currency":"USD","address":"14550 Clay Terrace Blvd.","zip_code":"46032","city":"Carmel","GeoIndex":{"type":"Point","coordinates":[-86.130347,39.998641]}},{"ref":"52cdef7c4bab8bd675297ebb","name":"ChaCha","category":"advertising","description":"Mobile and Online Answers Service","latitude":37.7871077,"longitude":-122.3990666,"founded_year":2005.0,"total_money_raised":"$89M","raised_amount":89000000.0,"currency":"USD","address":"156 2nd St","zip_code":"94105","city":"San Francisco","GeoIndex":{"type":"Point","coordinates":[-122.3990666,37.7871077]}},{"ref":"52cdef7c4bab8bd675297e9c","name":"Techstars","category":"finance","description":"Seed fund + accelerator","latitude":40.010492,"longitude":-105.276843,"founded_year":2006.0,"total_money_raised":"$34M","raised_amount":34000000.0,"currency":"USD","address":"","zip_code":"","city":"Boulder","GeoIndex":{"type":"Point","coordinates":[-105.276843,40.010492]}},{"ref":"52cdef7c4bab8bd675297ebf","name":"Kontera","category":"advertising","description":"In-Text Advertising","latitude":37.767575,"longitude":-122.411157,"founded_year":2003.0,"total_money_raised":"$36.1M","raised_amount":36139969.0,"currency":"USD","address":"1550 Bryant St. suite 975","zip_code":"94103","city":"San Francisco","GeoIndex":{"type":"Point","coordinates":[-122.411157,37.767575]}},{"ref":"52cdef7c4bab8bd675297ec0","name":"Sportingo","category":"web","description":"Sports News and Entertainment","latitude":17.08881,"longitude":-96.76492,"founded_year":2006.0,"total_money_raised":"$3.2M","raised_amount":3200000.0,"currency":"USD","address":null,"zip_code":"46733","city":null,"GeoIndex":{"type":"Point","coordinates":[-96.76492,17.08881]}},{"ref":"52cdef7c4bab8bd675297ec6","name":"TimeBridge","category":"web","description":"Meeting Management Tool","latitude":37.3865645,"longitude":-122.0841761,"founded_year":2005.0,"total_money_raised":"$12.4M","raised_amount":12400000.0,"currency":"USD","address":"800 W. El Camino Real","zip_code":"94040","city":"Mountain View","GeoIndex":{"type":"Point","coordinates":[-122.0841761,37.3865645]}},{"ref":"52cdef7c4bab8bd675297ec9","name":"Snocap","category":"games_video","description":"B2B Digital Music Distributor","latitude":37.7850203,"longitude":-122.3999147,"founded_year":null,"total_money_raised":"$25M","raised_amount":25000000.0,"currency":"USD","address":"201 Third Street, 2nd Floor","zip_code":"94103","city":"San Francisco","GeoIndex":{"type":"Point","coordinates":[-122.3999147,37.7850203]}},{"ref":"52cdef7c4bab8bd675297ec2","name":"Dropbox","category":"software","description":"Always have your stuff, wherever you are","latitude":37.7909427,"longitude":-122.4084994,"founded_year":2007.0,"total_money_raised":"$257M","raised_amount":257200000.0,"currency":"USD","address":"","zip_code":"94107","city":"San Francisco","GeoIndex":{"type":"Point","coordinates":[-122.4084994,37.7909427]}},{"ref":"52cdef7c4bab8bd675297ec2","name":"Dropbox","category":"software","description":"Always have your stuff, wherever you are","latitude":53.3325955,"longitude":-6.2527021,"founded_year":2007.0,"total_money_raised":"$257M","raised_amount":257200000.0,"currency":"USD","address":"Fitzwilliam Hall","zip_code":"","city":"Dublin","GeoIndex":{"type":"Point","coordinates":[-6.2527021,53.3325955]}},